loggingTime,loggingSample,locationTimestamp_since1970,locationLatitude,locationLongitude,locationAltitude,locationSpeed,locationCourse,locationVerticalAccuracy,locationHorizontalAccuracy,locationFloor,locationHeadingTimestamp_since1970,locationHeadingX,locationHeadingY,locationHeadingZ,locationTrueHeading,locationMagneticHeading,locationHeadingAccuracy,accelerometerTimestamp_sinceReboot,accelerometerAccelerationX,accelerometerAccelerationY,accelerometerAccelerationZ,gyroTimestamp_sinceReboot,gyroRotationX,gyroRotationY,gyroRotationZ,motionTimestamp_sinceReboot,motionYaw,motionRoll,motionPitch,motionRotationRateX,motionRotationRateY,motionRotationRateZ,motionUserAccelerationX,motionUserAccelerationY,motionUserAccelerationZ,motionAttitudeReferenceFrame,motionQuaternionX,motionQuaternionY,motionQuaternionZ,motionQuaternionW,motionGravityX,motionGravityY,motionGravityZ,motionMagneticFieldX,motionMagneticFieldY,motionMagneticFieldZ,motionMagneticFieldCalibrationAccuracy,activityTimestamp_sinceReboot,activity,activityActivityConfidence,activityActivityStartDate,pedometerStartDate,pedometerNumberofSteps,pedometerDistance,pedometerFloorAscended,pedometerFloorDescended,pedometerEndDate,altimeterTimestamp_sinceReboot,altimeterReset,altimeterRelativeAltitude,altimeterPressure,IP_en0,IP_pdp_ip0,deviceOrientation,state
2015-05-15 18:45:35.822,1,1431704732.371417,59.93364959171232,30.35731185168192,21.27803,-1,-1,10,65,-9999,1431704735.801379,-0.0414581298828125,8.184059143066406,-40.23046875,12.78990364074707,2.394311428070068,35,364005.112167375,0.015960693359375,-0.1154022216796875,-0.9857635498046875,364005.106405375,-0.342009006142374,0.07700876502905828,-0.08451515087755562,364005.096421375,-0.4148983201973262,0.011315830056683,0.1165574948377209,-0.2128733396530151,0.05033740028738976,-0.0583096407353878,-0.003639933886006474,-0.01242938823997974,0.007555569987744093,XArbitraryZVertical,0.05815937609927676,-0.006469185804106515,-0.20528897978639,0.9769503935128914,0.01123881060630083,-0.1162937581539154,-0.9931512475013733,0,0,0,-1,363997.172121,unknown,2,2015-05-15 18:45:27.829,null,0,0,0,0,null,0,0.757637,100.0746,192.168.152.8,100.97.112.76,5,0
2015-05-15 18:45:35.830,2,1431704732.371417,59.93364959171232,30.35731185168192,21.27803,-1,-1,10,65,-9999,1431704735.820643,-0.07541656494140625,7.947097778320312,-40.32928466796875,12.94991302490234,2.554321527481079,35,364005.122044375,0.00762939453125,-0.099456787109375,-0.967620849609375,364005.106405375,-0.342009006142374,0.07700876502905828,-0.08451515087755562,364005.096421375,-0.4148983201973262,0.011315830056683,0.1165574948377209,-0.2128733396530151,0.05033740028738976,-0.0583096407353878,-0.003639933886006474,-0.01242938823997974,0.007555569987744093,XArbitraryZVertical,0.05815937609927676,-0.006469185804106515,-0.20528897978639,0.9769503935128914,0.01123881060630083,-0.1162937581539154,-0.9931512475013733,0,0,0,-1,363997.172121,unknown,2,2015-05-15 18:45:27.829,null,0,0,0,0,null,0,0.757637,100.0746,192.168.152.8,100.97.112.76,5,0
2015-05-15 18:45:35.832,3,1431704732.371417,59.93364959171232,30.35731185168192,21.27803,-1,-1,10,65,-9999,1431704735.820643,-0.07541656494140625,7.947097778320312,-40.32928466796875,12.94991302490234,2.554321527481079,35,364005.131929375,-0.0052947998046875,-0.093414306640625,-0.9604644775390625,364005.126395375,-0.2980780334326448,-0.1012698962435711,-0.02951741225800224,364005.106405375,-0.4155172908565878,0.01203984205681652,0.113635334797559,-0.3131403625011444,0.06048674136400223,-0.06578037887811661,-0.003233874216675758,-0.01614093035459518,0.0105835422873497,XArbitraryZVertical,0.0568046292288352,-0.005832182059205619,-0.2055961807074732,0.9769695134593802,0.01196190156042576,-0.1133909299969673,-0.9934784173965454,0,0,0,-1,363997.172121,unknown,2,2015-05-15 18:45:27.829,null,0,0,0,0,null,0,0.757637,100.0746,192.168.152.8,100.97.112.76,5,0
2015-05-15 18:45:35.833,4,1431704732.371417,59.93364959171232,30.35731185168192,21.27803,-1,-1,10,65,-9999,1431704735.820643,-0.07541656494140625,7.947097778320312,-40.32928466796875,12.94991302490234,2.554321527481079,35,364005.141831375,-0.0027008056640625,-0.091949462890625,-0.9882965087890625,364005.136371375,-0.2484223296436814,0.005199822028379712,-0.02196548635486455,364005.116407375,-0.4160226844155392,0.01172906734908854,0.1103869499654745,-0.3202451765537262,-0.07553230971097946,-0.04740593954920769,0.004303281661123037,-0.005239317659288645,0.008081628940999508,XArbitraryZVertical,0.05518461622663631,-0.005662927476251546,-0.2058799555396446,0.9770035994259525,0.01165741123259068,-0.1101629063487053,-0.9938451647758484,0,0,0,-1,363997.172121,unknown,2,2015-05-15 18:45:27.829,null,0,0,0,0,null,0,0.757637,100.0746,192.168.152.8,100.97.112.76,5,0
2015-05-15 18:45:35.851,5,1431704732.371417,59.93364959171232,30.35731185168192,21.27803,-1,-1,10,65,-9999,1431704735.844728,0.02648162841796875,8.116355895996094,-40.3621826171875,12.78236961364746,2.386778116226196,35,364005.151702375,0.0069732666015625,-0.1030426025390625,-1.00946044921875,364005.136371375,-0.2484223296436814,0.005199822028379712,-0.02196548635486455,364005.126395375,-0.4161868564742016,0.01053800353707239,0.1075584798751908,-0.2692094743251801,-0.1177918463945389,-0.01078271586447954,-0.002847517607733607,0.007894424721598625,0.02654510736465454,XArbitraryZVertical,0.05367991701315915,-0.005957150006423721,-0.2060161719668495,0.9770569664872883,0.01047691237181425,-0.1073512136936188,-0.9941659569740295,0,0,0,-1,363997.172121,unknown,2,2015-05-15 18:45:27.829,null,0,0,0,0,null,0,0.757637,100.0746,192.168.152.8,100.97.112.76,5,0
2015-05-15 18:45:35.852,6,1431704732.371417,59.93364959171232,30.35731185168192,21.27803,-1,-1,10,65,-9999,1431704735.844728,0.02648162841796875,8.116355895996094,-40.3621826171875,12.78236961364746,2.386778116226196,35,364005.161588375,0.0210113525390625,-0.115264892578125,-1.032058715820312,364005.156343375,-0.1479439248760819,0.08111429416552443,-0.07271228724243343,364005.136371375,-0.4161360124016556,0.009690551875691679,0.104976729777541,-0.2195548266172409,-0.01132379658520222,-0.003230339847505093,-0.01493185479193926,0.01136972010135651,0.03398383036255836,XArbitraryZVertical,0.05233161252309763,-0.006103189744635931,-0.206034332959713,0.9771253793897049,0.009637054987251759,-0.1047840267419815,-0.9944483041763306,0,0,0,-1,363997.172121,unknown,2,2015-05-15 18:45:27.829,null,0,0,0,0,null,0,0.757637,100.0746,192.168.152.8,100.97.112.76,5,0
2015-05-15 18:45:35.859,7,1431704732.371417,59.93364959171232,30.35731185168192,21.27803,-1,-1,10,65,-9999,1431704735.844728,0.02648162841796875,8.116355895996094,-40.3621826171875,12.78236961364746,2.386778116226196,35,364005.171464375,0.0392913818359375,-0.1202239990234375,-1.040130615234375,364005.156343375,-0.1479439248760819,0.08111429416552443,-0.07271228724243343,364005.146355375,-0.4164214724893006,0.01019254503105106,0.1031701245067383,-0.167191281914711,0.05798553675413132,-0.04067894816398621,-0.01283897832036018,0.01103773433715105,0.006334505509585142,XArbitraryZVertical,0.05149995203136815,-0.005678710611530606,-0.206174864467274,0.9771424831867733,0.01013817265629768,-0.1029872000217438,-0.9946309924125671,0,0,0,-1,363997.172121,unknown,2,2015-05-15 18:45:27.829,null,0,0,0,0,null,0,0.757637,100.0746,192.168.152.8,100.97.112.76,5,0
2015-05-15 18:45:35.869,8,1431704732.371417,59.93364959171232,30.35731185168192,21.27803,-1,-1,10,65,-9999,1431704735.860103,0.4001235961914062,8.217918395996094,-40.46087646484375,11.27333450317383,0.8777423501014709,35,364005.181363375,0.0470428466796875,-0.130279541015625,-1.028427124023438,364005.166337375,-0.1138410818531812,0.05258917572968571,-0.05648005408229147,364005.156343375,-0.4169562614263349,0.01089186366129119,0.1018632730453993,-0.1190765425562859,0.06459073722362518,-0.05397721379995346,-0.00386192393489182,-0.001355395768769085,-0.01470303628593683,XArbitraryZVertical,0.05093222063533433,-0.005215594121940482,-0.2064285259901639,0.9771212668530924,0.01083519030362368,-0.1016872078180313,-0.9947574138641357,0,0,0,-1,363997.172121,unknown,2,2015-05-15 18:45:27.829,null,0,0,0,0,null,0,0.757637,100.0746,192.168.152.8,100.97.112.76,5,0
2015-05-15 18:45:35.879,9,1431704732.371417,59.93364959171232,30.35731185168192,21.27803,-1,-1,10,65,-9999,1431704735.860103,0.4001235961914062,8.217918395996094,-40.46087646484375,11.27333450317383,0.8777423501014709,35,364005.191254375,0.0356292724609375,-0.1425018310546875,-0.997589111328125,364005.176324375,-0.09974710073226382,-0.01852308432982813,-0.05031403721043102,364005.156343375,-0.4169562614263349,0.01089186366129119,0.1018632730453993,-0.1190765425562859,0.06459073722362518,-0.05397721379995346,-0.00386192393489182,-0.001355395768769085,-0.01470303628593683,XArbitraryZVertical,0.05093222063533433,-0.005215594121940482,-0.2064285259901639,0.9771212668530924,0.01083519030362368,-0.1016872078180313,-0.9947574138641357,0,0,0,-1,363997.172121,unknown,2,2015-05-15 18:45:27.829,null,0,0,0,0,null,0,0.757637,100.0746,192.168.152.8,100.97.112.76,5,0
2015-05-15 18:45:35.889,10,1431704732.371417,59.93364959171232,30.35731185168192,21.27803,-1,-1,10,65,-9999,1431704735.88155,0.7397994995117188,8.624130249023438,-40.6583251953125,9.905357360839844,359.509765625,35,364005.201126375,0.019561767578125,-0.1331024169921875,-0.971588134765625,364005.186312375,-0.1219914200532597,-0.08874664753358252,-0.038146853138186,364005.166337375,-0.4173573131078231,0.01138252815530036,0.1009353995543933,-0.08497375249862671,0.03606565296649933,-0.03774501755833626,0.009687001816928387,-0.01450079306960106,-0.03721281886100769,XArbitraryZVertical,0.05052861025620241,-0.004889979471535742,-0.2066194091055458,0.9771035602366696,0.01132435072213411,-0.1007640957832336,-0.9948458671569824,0,0,0,-1,363997.172121,unknown,2,2015-05-15 18:45:27.829,null,0,0,0,0,null,0,0.757637,100.0746,192.168.152.8,100.97.112.76,5,0
2015-05-15 18:45:35.900,11,1431704732.371417,59.93364959171232,30.35731185168192,21.27803,-1,-1,10,65,-9999,1431704735.88155,0.7397994995117188,8.624130249023438,-40.6583251953125,9.905357360839844,359.509765625,35,364005.211015375,0.0143585205078125,-0.0990753173828125,-0.9647064208984375,364005.186312375,-0.1219914200532597,-0.08874664753358252,-0.038146853138186,364005.176324375,-0.417757359279341,0.01203229400325156,0.1006315237699101,-0.07087825983762741,-0.0350436307489872,-0.03157984837889671,0.02732024900615215,-0.01976223289966583,-0.04526171833276749,XArbitraryZVertical,0.05044638461466042,-0.004551144392904126,-0.2068009017900287,0.9770710498130679,0.01197113282978535,-0.1004617661237717,-0.9948688745498657,0,0,0,-1,363997.172121,unknown,2,2015-05-15 18:45:27.829,null,0,0,0,0,null,0,0.757637,100.0746,192.168.152.8,100.97.112.76,5,0
2015-05-15 18:45:35.909,12,1431704732.371417,59.93364959171232,30.35731185168192,21.27803,-1,-1,10,65,-9999,1431704735.901001,0.5360031127929688,8.691825866699219,-40.592529296875,10.38765716552734,359.9920654296875,35,364005.220898375,0.006622314453125,-0.086395263671875,-0.96746826171875,364005.216285375,-0.1401419281465857,-0.01873453932038042,0.04635125350839311,364005.196303375,-0.4178694633710486,0.009929798984897693,0.09868741169393823,-0.1094664931297302,-0.1212887242436409,0.02300477772951126,0.02574795112013817,-0.04397452995181084,-0.002503823256120086,XArbitraryZVertical,0.04927897083964869,-0.0053794963792129,-0.206923343158979,0.9771004933514041,0.009881321340799332,-0.09852729737758636,-0.9950852990150452,0,0,0,-1,363997.172121,unknown,2,2015-05-15 18:45:27.829,null,0,0,0,0,null,0,0.757637,100.0746,192.168.152.8,100.97.112.76,5,0
2015-05-15 18:45:35.931,13,1431704732.371417,59.93364959171232,30.35731185168192,21.27803,-1,-1,10,65,-9999,1431704735.92005,0.4340972900390625,9.131904602050781,-40.36212158203125,10.90258026123047,0.506988525390625,35,364005.230790375,0.002288818359375,-0.101654052734375,-0.99237060546875,364005.226269375,-0.1391182090235593,0.02482971610724477,0.03273078242929185,364005.206297375,-0.4173054944832331,0.008933499513999504,0.09756850953148392,-0.1153430715203285,-0.08201771229505539,0.06371249258518219,0.01067087426781654,-0.03568863496184349,0.02361612021923065,XArbitraryZVertical,0.0486309105631136,-0.005736505841800041,-0.2066804564779,0.9771823350575731,0.008890893310308456,-0.09741377830505371,-0.9952042698860168,0,0,0,-1,363997.172121,unknown,2,2015-05-15 18:45:27.829,null,0,0,0,0,null,0,0.757637,100.0746,192.168.152.8,100.97.112.76,5,0
2015-05-15 18:45:35.932,14,1431704732.371417,59.93364959171232,30.35731185168192,21.27803,-1,-1,10,65,-9999,1431704735.92005,0.4340972900390625,9.131904602050781,-40.36212158203125,10.90258026123047,0.506988525390625,35,364005.240667375,0.007904052734375,-0.1030120849609375,-1.014328002929688,364005.226269375,-0.1391182090235593,0.02482971610724477,0.03273078242929185,364005.216285375,-0.4166331561440509,0.008580435549944801,0.09658681403165621,-0.1112727671861649,-0.03525430336594582,0.06508512049913406,0.00581818213686347,-0.002638609847053885,0.03059605695307255,XArbitraryZVertical,0.04811676309258997,-0.005791180156739626,-0.2063675115306555,0.9772736001378955,0.008540337905287743,-0.09643670916557312,-0.9953024983406067,0,0,0,-1,363997.172121,unknown,2,2015-05-15 18:45:27.829,null,0,0,0,0,null,0,0.757637,100.0746,192.168.152.8,100.97.112.76,5,0
2015-05-15 18:45:35.938,15,1431704732.371417,59.93364959171232,30.35731185168192,21.27803,-1,-1,10,65,-9999,1431704735.92005,0.4340972900390625,9.131904602050781,-40.36212158203125,10.90258026123047,0.506988525390625,35,364005.250552375,0.005645751953125,-0.0851287841796875,-1.021865844726562,364005.246248375,-0.08162215898540254,0.02085015449033936,0.04722716719092017,364005.226269375,-0.4160812006921202,0.008499082904860091,0.09549047707928568,-0.1102491021156311,0.00830998457968235,0.05146460980176926,-0.00183794682379812,0.008950158953666687,0.02794003300368786,XArbitraryZVertical,0.04757427375800801,-0.005704456673070081,-0.2061074662688857,0.9773555443126305,0.008460260927677155,-0.09534542262554169,-0.995408296585083,0,0,0,-1,363997.172121,unknown,2,2015-05-15 18:45:27.829,null,0,0,0,0,null,0,0.6530304,100.0758,192.168.152.8,100.97.112.76,5,0
2015-05-15 18:45:35.948,16,1431704732.371417,59.93364959171232,30.35731185168192,21.27803,-1,-1,10,65,-9999,1431704735.93926,0.4680633544921875,8.894935607910156,-40.197509765625,10.56716537475586,0.1715739071369171,35,364005.260419375,0.0048370361328125,-0.0706787109375,-1.00762939453125,364005.246248375,-0.08162215898540254,0.02085015449033936,0.04722716719092017,364005.236260375,-0.4155166473682582,0.008714584854729689,0.09446759724306447,-0.0975826308131218,0.02961610443890095,0.05706120654940605,-0.006386800669133663,-0.007326899562031031,0.003132845973595977,XArbitraryZVertical,0.04709820936193712,-0.005480233297946952,-0.2058336318525241,0.977437589678366,0.008675619028508663,-0.09432715177536011,-0.9955034255981445,0,0,0,-1,363997.172121,unknown,2,2015-05-15 18:45:27.829,null,0,0,0,0,null,0,0.6530304,100.0758,192.168.152.8,100.97.112.76,5,0
2015-05-15 18:45:35.959,17,1431704732.371417,59.93364959171232,30.35731185168192,21.27803,-1,-1,10,65,-9999,1431704735.93926,0.4680633544921875,8.894935607910156,-40.197509765625,10.56716537475586,0.1715739071369171,35,364005.270318375,0.0013885498046875,-0.0747833251953125,-0.9881439208984375,364005.256234375,-0.03242664943280481,-0.02141181516423708,0.05287972660461335,364005.236260375,-0.4155166473682582,0.008714584854729689,0.09446759724306447,-0.0975826308131218,0.02961610443890095,0.05706120654940605,-0.006386800669133663,-0.007326899562031031,0.003132845973595977,XArbitraryZVertical,0.04709820936193712,-0.005480233297946952,-0.2058336318525241,0.977437589678366,0.008675619028508663,-0.09432715177536011,-0.9955034255981445,0,0,0,-1,363997.172121,unknown,2,2015-05-15 18:45:27.829,null,0,0,0,0,null,0,0.6530304,100.0758,192.168.152.8,100.97.112.76,5,0
2015-05-15 18:45:35.968,18,1431704732.371417,59.93364959171232,30.35731185168192,21.27803,-1,-1,10,65,-9999,1431704735.959895,0.1963119506835938,8.759544372558594,-40.32916259765625,11.41366958618164,1.018077611923218,35,364005.280202375,-0.0010986328125,-0.072509765625,-0.964630126953125,364005.276204375,0.02134257297589501,-0.02645983701048227,0.01076449712610028,364005.256234375,-0.4141436417829755,0.008345357400565478,0.09334406022056908,-0.003558961907401681,-0.03793181478977203,0.07161360234022141,-0.002663178369402885,0.008079782128334045,-0.02625391073524952,XArbitraryZVertical,0.04651494960527855,-0.005512897039614308,-0.2051789742834877,0.9776029643681429,0.008308930322527885,-0.09320856630802155,-0.9956119060516357,0,0,0,-1,363997.172121,unknown,2,2015-05-15 18:45:27.829,null,0,0,0,0,null,0,0.6530304,100.0758,192.168.152.8,100.97.112.76,5,0
2015-05-15 18:45:35.978,19,1431704732.371417,59.93364959171232,30.35731185168192,21.27803,-1,-1,10,65,-9999,1431704735.959895,0.1963119506835938,8.759544372558594,-40.32916259765625,11.41366958618164,1.018077611923218,35,364005.290083375,0.0020751953125,-0.071136474609375,-0.9525909423828125,364005.276204375,0.02134257297589501,-0.02645983701048227,0.01076449712610028,364005.2662163751,-0.4135588656314771,0.007706610099116016,0.0936456329500807,0.03832291439175606,-0.06322595477104187,0.05379914492368698,-0.002835731022059917,0.02283011190593243,-0.0120405089110136,XArbitraryZVertical,0.04659852599033508,-0.005842486198487673,-0.204905957095872,0.9776543312833678,0.007672767154872417,-0.09350882470607758,-0.9955888986587524,0,0,0,-1,363997.172121,unknown,2,2015-05-15 18:45:27.829,null,0,0,0,0,null,0,0.6530304,100.0758,192.168.152.8,100.97.112.76,5,0
2015-05-15 18:45:35.988,20,1431704732.371417,59.93364959171232,30.35731185168192,21.27803,-1,-1,10,65,-9999,1431704735.980402,-0.07541656494140625,8.624137878417969,-40.13165283203125,12.49513244628906,2.09954047203064,35,364005.299972375,0.0021514892578125,-0.081390380859375,-0.9472503662109375,364005.286201375,0.01827514403234175,0.01602637080787884,-0.02105095683653134,364005.276204375,-0.4132029624214659,0.007164275509072639,0.0941281818180682,0.0502101443707943,-0.04297977313399315,0.02949829772114754,-0.005743950139731169,0.01920592039823532,0.007403742056339979,XArbitraryZVertical,0.04677992004813465,-0.006148790016567679,-0.2047414399396621,0.9776782570114833,0.007132499944418669,-0.09398924559354782,-0.9955476522445679,0,0,0,-1,363997.172121,unknown,2,2015-05-15 18:45:27.829,null,0,0,0,0,null,0,0.6530304,100.0758,192.168.152.8,100.97.112.76,5,0
2015-05-15 18:45:36.010,21,1431704732.371417,59.93364959171232,30.35731185168192,21.27803,-1,-1,10,65,-9999,1431704735.998609,0.09441375732421875,8.725692749023438,-40.23046875,11.85534381866455,1.459752082824707,35,364005.309857375,0.0123443603515625,-0.090728759765625,-0.961029052734375,364005.296190375,-0.01796302155258446,0.06260292774449265,-0.04467745676327831,364005.276204375,-0.4132029624214659,0.007164275509072639,0.0941281818180682,0.0502101443707943,-0.04297977313399315,0.02949829772114754,-0.005743950139731169,0.01920592039823532,0.007403742056339979,XArbitraryZVertical,0.04677992004813465,-0.006148790016567679,-0.2047414399396621,0.9776782570114833,0.007132499944418669,-0.09398924559354782,-0.9955476522445679,0,0,0,-1,363997.172121,unknown,2,2015-05-15 18:45:27.829,null,0,0,0,0,null,0,0.6530304,100.0758,192.168.152.8,100.97.112.76,5,0
2015-05-15 18:45:36.012,22,1431704732.371417,59.93364959171232,30.35731185168192,21.27803,-1,-1,10,65,-9999,1431704735.998609,0.09441375732421875,8.725692749023438,-40.23046875,11.85534381866455,1.459752082824707,35,364005.319753375,0.0187835693359375,-0.1060943603515625,-0.9813079833984375,364005.296190375,-0.01796302155258446,0.06260292774449265,-0.04467745676327831,364005.286201375,-0.4131444794883606,0.007042463319900855,0.09460976320120316,0.04714265465736389,-0.0004935307078994811,-0.002317192498594522,-0.008109543472528458,0.02195891924202442,0.03087301924824715,XArbitraryZVertical,0.04700303093388617,-0.00625634055620474,-0.2047125415384619,0.9776729251762535,0.00701091019436717,-0.09446868300437927,-0.9955031275749207,0,0,0,-1,363997.172121,unknown,2,2015-05-15 18:45:27.829,null,0,0,0,0,null,0,0.6530304,100.0758,192.168.152.8,100.97.112.76,5,0
2015-05-15 18:45:36.017,23,1431704732.371417,59.93364959171232,30.35731185168192,21.27803,-1,-1,10,65,-9999,1431704735.998609,0.09441375732421875,8.725692749023438,-40.23046875,11.85534381866455,1.459752082824707,35,364005.329624375,0.0328369140625,-0.1266326904296875,-1.020339965820312,364005.316167375,-0.1278077638739927,0.1247672328574493,-0.07651288443408552,364005.306178375,-0.4137225882549469,0.00808595709864812,0.09390535261557879,-0.04458336159586906,0.08831707388162613,-0.04340638592839241,-0.005898754578083754,0.01237701997160912,0.04831121861934662,XArbitraryZVertical,0.04676387263499065,-0.005687535105031881,-0.2049753829999308,0.9776327963630287,0.008050243370234966,-0.09376739710569382,-0.9955615997314453,0,0,0,-1,363997.172121,unknown,2,2015-05-15 18:45:27.829,null,0,0,0,0,null,0,0.6530304,100.0758,192.168.152.8,100.97.112.76,5,0
2015-05-15 18:45:36.027,24,1431704732.371417,59.93364959171232,30.35731185168192,21.27803,-1,-1,10,65,-9999,1431704736.018524,0.162353515625,8.861099243164062,-40.23046875,11.4577112197876,1.062119245529175,35,364005.339511375,0.0353240966796875,-0.134735107421875,-1.044082641601562,364005.336142375,-0.1952629711246097,0.08406907139496735,-0.03480538491846358,364005.316167375,-0.4142666103613378,0.009192043927197207,0.0930507763416096,-0.09894280135631561,0.1082468703389168,-0.0577789694070816,0.003192211035639048,0.002187795471400023,0.03460278362035751,XArbitraryZVertical,0.04645814933100777,-0.005071744833039759,-0.2052214347123271,0.9775991410080392,0.00915214978158474,-0.09291655570268631,-0.9956318140029907,0,0,0,-1,363997.172121,unknown,2,2015-05-15 18:45:27.829,null,0,0,0,0,null,0,0.6530304,100.0758,192.168.152.8,100.97.112.76,5,0
2015-05-15 18:45:36.038,25,1431704732.371417,59.93364959171232,30.35731185168192,21.27803,-1,-1,10,65,-9999,1431704736.018524,0.162353515625,8.861099243164062,-40.23046875,11.4577112197876,1.062119245529175,35,364005.349409375,0.0289306640625,-0.1147613525390625,-1.0484619140625,364005.336142375,-0.1952629711246097,0.08406907139496735,-0.03480538491846358,364005.326154375,-0.4147830658066485,0.01039313304689801,0.09163573504923879,-0.153473749756813,0.1154227927327156,-0.04874503612518311,0.008434228599071503,-0.01458681747317314,0.0144426180049777,XArbitraryZVertical,0.04588864867165855,-0.004350987545264789,-0.205456252651508,0.9775801906119137,0.010349340736866,-0.09150754660367966,-0.9957506060600281,0,0,0,-1,363997.172121,unknown,2,2015-05-15 18:45:27.829,null,0,0,0,0,null,0,0.6530304,100.0758,192.168.152.8,100.97.112.76,5,0
2015-05-15 18:45:36.047,26,1431704732.371417,59.93364959171232,30.35731185168192,21.27803,-1,-1,10,65,-9999,1431704736.039227,0.09441375732421875,9.064201354980469,-40.16455078125,11.77816009521484,1.382568717002869,35,364005.359279375,0.019378662109375,-0.0850372314453125,-1.033370971679688,364005.346132375,-0.1581230591945827,-0.007129548554251129,0.02486939720748695,364005.336142375,-0.4150792813544756,0.01191049873964115,0.09091988515963909,-0.1663943827152252,0.06755130738019943,-0.01607228629291058,0.02097588963806629,-0.03583801910281181,-0.0245409682393074,XArbitraryZVertical,0.04569412328013951,-0.00354236400013542,-0.205571612330154,0.9775683152388313,0.01186102349311113,-0.09079467505216599,-0.9957990050315857,0,0,0,-1,363997.172121,unknown,2,2015-05-15 18:45:27.829,null,0,0,0,0,null,0,0.6530304,100.0758,192.168.152.8,100.97.112.76,5,0
2015-05-15 18:45:36.057,27,1431704732.371417,59.93364959171232,30.35731185168192,21.27803,-1,-1,10,65,-9999,1431704736.039227,0.09441375732421875,9.064201354980469,-40.16455078125,11.77816009521484,1.382568717002869,35,364005.369171375,0.0063018798828125,-0.07000732421875,-1.001007080078125,364005.3561213751,-0.1006216828342458,-0.09822963154313667,0.0751677217674865,364005.336142375,-0.4150792813544756,0.01191049873964115,0.09091988515963909,-0.1663943827152252,0.06755130738019943,-0.01607228629291058,0.02097588963806629,-0.03583801910281181,-0.0245409682393074,XArbitraryZVertical,0.04569412328013951,-0.00354236400013542,-0.205571612330154,0.9775683152388313,0.01186102349311113,-0.09079467505216599,-0.9957990050315857,0,0,0,-1,363997.172121,unknown,2,2015-05-15 18:45:27.829,null,0,0,0,0,null,0,0.6530304,100.0758,192.168.152.8,100.97.112.76,5,0
2015-05-15 18:45:36.069,28,1431704732.371417,59.93364959171232,30.35731185168192,21.27803,-1,-1,10,65,-9999,1431704736.057951,0.162353515625,9.470420837402344,-40.23046875,11.88637161254883,1.490779638290405,35,364005.379038375,-0.0010223388671875,-0.0662078857421875,-0.9708404541015625,364005.3561213751,-0.1006216828342458,-0.09822963154313667,0.0751677217674865,364005.346132375,-0.4147856232561493,0.01189149233990919,0.08952626889090996,-0.1292545348405838,-0.02364727854728699,0.04360245913267136,0.02348050661385059,-0.04532838240265846,-0.04815786331892014,XArbitraryZVertical,0.04501155862592111,-0.003401431461885782,-0.2054390293000656,0.977628352235285,0.01184359006583691,-0.08940672874450684,-0.9959247708320618,0,0,0,-1,363997.172121,unknown,2,2015-05-15 18:45:27.829,null,0,0,0,0,null,0,0.6530304,100.0758,192.168.152.8,100.97.112.76,5,0
2015-05-15 18:45:36.090,29,1431704732.371417,59.93364959171232,30.35731185168192,21.27803,-1,-1,10,65,-9999,1431704736.078015,0.6379013061523438,9.538124084472656,-40.0987548828125,10.49002933502197,0.09443789720535278,35,364005.388933375,-0.0016632080078125,-0.0728302001953125,-0.963897705078125,364005.376099375,-0.08092707394089185,-0.1246868053925289,0.03468607530162803,364005.366109375,-0.4129952367047956,0.009186295440535956,0.08817259597132571,-0.05013958737254143,-0.1709485203027725,0.08849422633647919,0.01022818125784397,0.00302116060629487,-0.03729768842458725,XArbitraryZVertical,0.04407608359073063,-0.004544948712374913,-0.2046336829370855,0.9778352100962949,0.009150480851531029,-0.08805838972330093,-0.996073305606842,0,0,0,-1,363997.172121,unknown,2,2015-05-15 18:45:27.829,null,0,0,0,0,null,0,0.6530304,100.0758,192.168.152.8,100.97.112.76,5,0
2015-05-15 18:45:36.091,30,1431704732.371417,59.93364959171232,30.35731185168192,21.27803,-1,-1,10,65,-9999,1431704736.078015,0.6379013061523438,9.538124084472656,-40.0987548828125,10.49002933502197,0.09443789720535278,35,364005.398812375,0.00030517578125,-0.0731964111328125,-0.96630859375,364005.396075375,-0.07367475366038807,0.0123986127709729,0.0003105245831032392,364005.376099375,-0.4123521143574465,0.007506444139226446,0.08711468856277081,-0.05206095054745674,-0.1412047743797302,0.05341919884085655,-0.001176028978079557,0.01699722185730934,-0.004827231634408236,XArbitraryZVertical,0.04338868185882874,-0.005243870736725384,-0.204362873435644,0.9779190866668536,0.007477908860892057,-0.08700454235076904,-0.9961798191070557,0,0,0,-1,363997.172121,unknown,2,2015-05-15 18:45:27.829,null,0,0,0,0,null,0,0.6530304,100.0758,192.168.152.8,100.97.112.76,5,0
2015-05-15 18:45:36.098,31,1431704732.371417,59.93364959171232,30.35731185168192,21.27803,-1,-1,10,65,-9999,1431704736.078015,0.6379013061523438,9.538124084472656,-40.0987548828125,10.49002933502197,0.09443789720535278,35,364005.408689375,0.003021240234375,-0.082275390625,-0.9725189208984375,364005.396075375,-0.07367475366038807,0.0123986127709729,0.0003105245831032392,364005.386087375,-0.4120237831875262,0.006651068201168132,0.08655938549413528,-0.0553196519613266,-0.0636628121137619,0.02713269926607609,-0.007648457307368517,0.0202434491366148,0.02539358474314213,XArbitraryZVertical,0.04303068867531332,-0.005598224651861884,-0.2042242366939623,0.9779619015378871,0.006626118440181017,-0.08645133674144745,-0.9962340593338013,0,0,0,-1,363997.172121,unknown,2,2015-05-15 18:45:27.829,null,0,0,0,0,null,0,0.6530304,100.0758,192.168.152.8,100.97.112.76,5,0
2015-05-15 18:45:36.108,32,1431704732.371417,59.93364959171232,30.35731185168192,21.27803,-1,-1,10,65,-9999,1431704736.098783,0.2642440795898438,9.571983337402344,-40.00006103515625,11.130615234375,0.7350233197212219,35,364005.418584375,0.0073699951171875,-0.0896148681640625,-0.990570068359375,364005.406063375,-0.0535939864089726,0.04967541118103001,0.005011802855420119,364005.386087375,-0.4120237831875262,0.006651068201168132,0.08655938549413528,-0.0553196519613266,-0.0636628121137619,0.02713269926607609,-0.007648457307368517,0.0202434491366148,0.02539358474314213,XArbitraryZVertical,0.04303068867531332,-0.005598224651861884,-0.2042242366939623,0.9779619015378871,0.006626118440181017,-0.08645133674144745,-0.9962340593338013,0,0,0,-1,363997.172121,unknown,2,2015-05-15 18:45:27.829,null,0,0,0,0,null,0,0.6530304,100.0758,192.168.152.8,100.97.112.76,5,0
2015-05-15 18:45:36.116,33,1431704732.371417,59.93364959171232,30.35731185168192,21.27803,-1,-1,10,65,-9999,1431704736.098783,0.2642440795898438,9.571983337402344,-40.00006103515625,11.130615234375,0.7350233197212219,35,364005.428470375,0.006805419921875,-0.0924835205078125,-1.005691528320312,364005.416053375,-0.04201296409265403,0.073100842445476,0.01167529821890738,364005.396075375,-0.411814772395634,0.006464397719007969,0.08607624868790764,-0.04480874538421631,-0.004119294695556164,0.01904357597231865,-0.0081036277115345,0.01313979644328356,0.03237920626997948,XArbitraryZVertical,0.04277598435747711,-0.005635631253113391,-0.2041289432635628,0.9779927552618602,0.006440419703722,-0.08596999943256378,-0.9962769150733948,0,0,0,-1,363997.172121,unknown,2,2015-05-15 18:45:27.829,null,0,0,0,0,null,0,0.6530304,100.0758,192.168.152.8,100.97.112.76,5,0
2015-05-15 18:45:36.128,34,1431704732.371417,59.93364959171232,30.35731185168192,21.27803,-1,-1,10,65,-9999,1431704736.117519,0.6039276123046875,9.504287719726562,-39.86834716796875,9.769920349121094,359.3743286132812,35,364005.4383513751,0.0091705322265625,-0.087554931640625,-1.015777587890625,364005.416053375,-0.04201296409265403,0.073100842445476,0.01167529821890738,364005.406063375,-0.4115865652192835,0.006685553851531603,0.08577793289268004,-0.02472803555428982,0.03315753862261772,0.02374481782317162,-0.006355748046189547,0.0124763697385788,0.02999246865510941,XArbitraryZVertical,0.04265331609041837,-0.005492131012748613,-0.2040144147744181,0.9780228267722779,0.006660923827439547,-0.0856727808713913,-0.9963010549545288,0,0,0,-1,363997.172121,unknown,2,2015-05-15 18:45:27.829,null,0,0,0,0,null,0,0.6530304,100.0758,192.168.152.8,100.97.112.76,5,0
2015-05-15 18:45:36.136,35,1431704732.371417,59.93364959171232,30.35731185168192,21.27803,-1,-1,10,65,-9999,1431704736.117519,0.6039276123046875,9.504287719726562,-39.86834716796875,9.769920349121094,359.3743286132812,35,364005.448236375,0.006500244140625,-0.0858154296875,-1.0252685546875,364005.436013375,-0.02284992215287986,0.05300436254362906,0.0245852379191755,364005.426041375,-0.410960753128885,0.007623390441434755,0.0854513591434746,-0.01424024626612663,0.05551440641283989,0.03359187394380569,-0.0002255059371236712,-0.004267464391887188,0.005752233322709799,XArbitraryZVertical,0.04259085162633588,-0.004986829019734252,-0.2036903859134633,0.9780957916178002,0.007595500908792019,-0.08534740656614304,-0.9963222742080688,0,0,0,-1,363997.172121,unknown,2,2015-05-15 18:45:27.829,null,0,0,0,0,null,0,0.6530304,100.0758,192.168.152.8,100.97.112.76,5,0
2015-05-15 18:45:36.146,36,1431704732.371417,59.93364959171232,30.35731185168192,21.27803,-1,-1,10,65,-9999,1431704736.137471,0.6379013061523438,9.673538208007812,-39.83538818359375,9.511528015136719,359.1159362792969,35,364005.458120375,0.0108795166015625,-0.077178955078125,-1.025924682617188,364005.456007375,-0.0004239752455406147,-0.06588287694303424,0.07220149294535624,364005.436013375,-0.4105589564404284,0.008016896745545518,0.08545069730382779,0.006015701219439507,0.03648615255951881,0.04331823438405991,-0.001182140083983541,-0.007136776112020016,-0.009372236207127571,XArbitraryZVertical,0.04263156618892677,-0.004785753466670702,-0.2034855041378423,0.978137667066226,0.007987559773027897,-0.08534674346446991,-0.9963192939758301,0,0,0,-1,363997.172121,unknown,2,2015-05-15 18:45:27.829,null,0,0,0,0,null,0,0.6530304,100.0758,192.168.152.8,100.97.112.76,5,0
2015-05-15 18:45:36.157,37,1431704732.371417,59.93364959171232,30.35731185168192,21.27803,-1,-1,10,65,-9999,1431704736.137471,0.6379013061523438,9.673538208007812,-39.83538818359375,9.511528015136719,359.1159362792969,35,364005.468002375,0.0089569091796875,-0.07061767578125,-1.002838134765625,364005.456007375,-0.0004239752455406147,-0.06588287694303424,0.07220149294535624,364005.436013375,-0.4105589564404284,0.008016896745545518,0.08545069730382779,0.006015701219439507,0.03648615255951881,0.04331823438405991,-0.001182140083983541,-0.007136776112020016,-0.009372236207127571,XArbitraryZVertical,0.04263156618892677,-0.004785753466670702,-0.2034855041378423,0.978137667066226,0.007987559773027897,-0.08534674346446991,-0.9963192939758301,0,0,0,-1,363997.172121,unknown,2,2015-05-15 18:45:27.829,null,0,0,0,0,null,0,0.6530304,100.0758,192.168.152.8,100.97.112.76,5,0
2015-05-15 18:45:36.172,38,1431704732.371417,59.93364959171232,30.35731185168192,21.27803,-1,-1,10,65,-9999,1431704736.159127,0.6379013061523438,9.605842590332031,-39.5062255859375,9.564964294433594,359.1693725585938,35,364005.477886375,0.0019073486328125,-0.0713043212890625,-0.9653472900390625,364005.466003375,-0.04996516310763063,-0.1479132985235459,0.04237462136868679,364005.446019375,-0.4099445373321266,0.00800077056868001,0.08571244817353087,0.033698670566082,-0.01013138145208359,0.06898307800292969,0.00119921809528023,-0.001947394455783069,-0.01948053948581219,XArbitraryZVertical,0.04275940900052771,-0.004807179447939892,-0.2031836934085923,0.9781947202374789,0.007971313782036304,-0.08560753613710403,-0.9962970614433289,0,0,0,-1,363997.172121,unknown,2,2015-05-15 18:45:27.829,null,0,0,0,0,null,0,0.6530304,100.0758,192.168.152.8,100.97.112.76,5,0
2015-05-15 18:45:36.176,39,1431704732.371417,59.93364959171232,30.35731185168192,21.27803,-1,-1,10,65,-9999,1431704736.159127,0.6379013061523438,9.605842590332031,-39.5062255859375,9.564964294433594,359.1693725585938,35,364005.487770375,-0.0027008056640625,-0.0762481689453125,-0.94244384765625,364005.475985375,-0.1070963600764465,-0.1768599953599442,0.003152650098435802,364005.456007375,-0.4090616831525602,0.007243425533346161,0.085988726764904,0.02844126522541046,-0.08240122348070145,0.09093446284532547,-0.0007163556292653084,6.736859359079972e-05,-0.02898944355547428,XArbitraryZVertical,0.04281987735936128,-0.005186805012950749,-0.2027663566511588,0.9782767296460942,0.007216599769890308,-0.08588279783725739,-0.9962791204452515,0,0,0,-1,363997.172121,unknown,2,2015-05-15 18:45:27.829,null,0,0,0,0,null,0,0.6530304,100.0758,192.168.152.8,100.97.112.76,5,0
2015-05-15 18:45:36.186,40,1431704732.371417,59.93364959171232,30.35731185168192,21.27803,-1,-1,10,65,-9999,1431704736.17794,0.3661575317382812,9.605842590332031,-39.76947021484375,10.50673675537109,0.11114501953125,35,364005.497638375,-0.0024566650390625,-0.0794219970703125,-0.931854248046875,364005.475985375,-0.1070963600764465,-0.1768599953599442,0.003152650098435802,364005.466003375,-0.4083389174142961,0.005751872803271761,0.08592472671905363,-0.02109997905790806,-0.1644316017627716,0.06110755726695061,0.005148895550519228,0.008640079759061337,-0.02963042259216309,XArbitraryZVertical,0.04263947689466255,-0.005894473077715487,-0.2024450589206645,0.9783471410066314,0.005730621051043272,-0.08581903576850891,-0.9962942600250244,0,0,0,-1,363997.172121,unknown,2,2015-05-15 18:45:27.829,null,0,0,0,0,null,0,0.6530304,100.0758,192.168.152.8,100.97.112.76,5,0
2015-05-15 18:45:36.196,41,1431704732.371417,59.93364959171232,30.35731185168192,21.27803,-1,-1,10,65,-9999,1431704736.17794,0.3661575317382812,9.605842590332031,-39.76947021484375,10.50673675537109,0.11114501953125,35,364005.507537375,0.001190185546875,-0.0897064208984375,-0.9402618408203125,364005.485973375,-0.1380188561255745,-0.14832022953811,-0.01090937308940059,364005.466003375,-0.4083389174142961,0.005751872803271761,0.08592472671905363,-0.02109997905790806,-0.1644316017627716,0.06110755726695061,0.005148895550519228,0.008640079759061337,-0.02963042259216309,XArbitraryZVertical,0.04263947689466255,-0.005894473077715487,-0.2024450589206645,0.9783471410066314,0.005730621051043272,-0.08581903576850891,-0.9962942600250244,0,0,0,-1,363997.172121,unknown,2,2015-05-15 18:45:27.829,null,0,0,0,0,null,0,0.6530304,100.0758,192.168.152.8,100.97.112.76,5,0
2015-05-15 18:45:36.205,42,1431704732.371417,59.93364959171232,30.35731185168192,21.27803,-1,-1,10,65,-9999,1431704736.197562,0.6379013061523438,10.01206207275391,-39.90118408203125,9.403099060058594,359.0075073242188,35,364005.517419375,0.006500244140625,-0.0960540771484375,-0.9636077880859375,364005.505950375,-0.09699978375173808,-0.008957808642590525,-0.006473079345546596,364005.485973375,-0.4079368860725112,0.002082231421414988,0.08425136536831437,-0.1091537922620773,-0.1648384779691696,0.007823488675057888,-0.0001674955128692091,0.01284740585833788,0.03110350295901299,XArbitraryZVertical,0.04145091250454376,-0.00751169861068185,-0.2023343494540446,0.9784100404572138,0.00207484420388937,-0.0841517299413681,-0.9964507818222046,0,0,0,-1,363997.172121,unknown,2,2015-05-15 18:45:27.829,null,0,0,0,0,null,0,0.6530304,100.0758,192.168.152.8,100.97.112.76,5,0
2015-05-15 18:45:36.216,43,1431704732.371417,59.93364959171232,30.35731185168192,21.27803,-1,-1,10,65,-9999,1431704736.197562,0.6379013061523438,10.01206207275391,-39.90118408203125,9.403099060058594,359.0075073242188,35,364005.527303375,0.0044097900390625,-0.095245361328125,-0.984100341796875,364005.505950375,-0.09699978375173808,-0.008957808642590525,-0.006473079345546596,364005.495953375,-0.4078530609455265,0.0007162139415384198,0.0830318978383407,-0.109382763504982,-0.1053480207920074,0.007084557320922613,-0.003414551960304379,0.006688354071229696,0.05411072820425034,XArbitraryZVertical,0.04071647406517842,-0.008054846049974845,-0.2023269821705118,0.9784380820882532,0.0007137464126572013,-0.08293652534484863,-0.9965545535087585,0,0,0,-1,363997.172121,unknown,2,2015-05-15 18:45:27.829,null,0,0,0,0,null,0,0.6530304,100.0758,192.168.152.8,100.97.112.76,5,0
2015-05-15 18:45:36.225,44,1431704732.371417,59.93364959171232,30.35731185168192,21.27803,-1,-1,10,65,-9999,1431704736.217621,0.3661575317382812,10.01206207275391,-39.967041015625,10.13805389404297,359.7424621582031,35,364005.537188375,0.0087127685546875,-0.08673095703125,-0.9977874755859375,364005.525921375,0.1255531316951316,0.06433504771748019,0.01030270499308054,364005.515938375,-0.4075624191134044,0.0004827971393800882,0.08215422650901785,0.01794818229973316,0.03760893270373344,0.02211323194205761,0.0007090168073773384,-0.007644577417522669,0.05636528134346008,XArbitraryZVertical,0.04026465909752643,-0.008074386951761539,-0.2021933133377773,0.9784842490017711,0.000481168768601492,-0.08206184208393097,-0.996627151966095,0,0,0,-1,363997.172121,unknown,2,2015-05-15 18:45:27.829,null,0,0,0,0,null,0,0.6530304,100.0758,192.168.152.8,100.97.112.76,5,0
2015-05-15 18:45:36.237,45,1431704732.371417,59.93364959171232,30.35731185168192,21.27803,-1,-1,10,65,-9999,1431704736.217621,0.3661575317382812,10.01206207275391,-39.967041015625,10.13805389404297,359.7424621582031,35,364005.547074375,0.004425048828125,-0.09722900390625,-0.9994354248046875,364005.545905375,0.5307035567544123,0.04712703233393319,0.04996649468817568,364005.525921375,-0.4072925155370057,0.000941640276623055,0.08332392021536142,0.154417559504509,0.04781633242964745,0.0290355496108532,0.005561870988458395,-0.01282654143869877,0.03292233869433403,XArbitraryZVertical,0.04088437348966435,-0.007962651518756378,-0.2020468589052216,0.9784897194102949,0.0009383732103742659,-0.08322753757238388,-0.9965301156044006,0,0,0,-1,363997.172121,unknown,2,2015-05-15 18:45:27.829,null,0,0,0,0,null,0,0.6530304,100.0758,192.168.152.8,100.97.112.76,5,0
2015-05-15 18:45:36.252,46,1431704732.371417,59.93364959171232,30.35731185168192,21.27803,-1,-1,10,65,-9999,1431704736.236636,0.4001312255859375,9.978202819824219,-40.3291015625,9.452354431152344,359.0567626953125,35,364005.556957375,0.0179290771484375,-0.11297607421875,-0.984161376953125,364005.545905375,0.5307035567544123,0.04712703233393319,0.04996649468817568,364005.525921375,-0.4072925155370057,0.000941640276623055,0.08332392021536142,0.154417559504509,0.04781633242964745,0.0290355496108532,0.005561870988458395,-0.01282654143869877,0.03292233869433403,XArbitraryZVertical,0.04088437348966435,-0.007962651518756378,-0.2020468589052216,0.9784897194102949,0.0009383732103742659,-0.08322753757238388,-0.9965301156044006,0,0,0,-1,363997.172121,unknown,2,2015-05-15 18:45:27.829,null,0,0,0,0,null,0,0.6530304,100.0758,192.168.152.8,100.97.112.76,5,0
2015-05-15 18:45:36.255,47,1431704732.371417,59.93364959171232,30.35731185168192,21.27803,-1,-1,10,65,-9999,1431704736.236636,0.4001312255859375,9.978202819824219,-40.3291015625,9.452354431152344,359.0567626953125,35,364005.566842375,0.019989013671875,-0.1297607421875,-0.9740753173828125,364005.545905375,0.5307035567544123,0.04712703233393319,0.04996649468817568,364005.535917375,-0.4070036391445603,0.001492643713879495,0.08670020288264858,0.3507260680198669,0.04768551513552666,0.03123459592461586,0.0029227533377707,-0.008653737604618073,0.01214243937283754,XArbitraryZVertical,0.04259294843491074,-0.008028079938376098,-0.2018785234680187,0.9784510475432341,0.001487036584876478,-0.08659162372350693,-0.9962427616119385,0,0,0,-1,363997.172121,unknown,2,2015-05-15 18:45:27.829,null,0,0,0,0,null,0,0.6530304,100.0758,192.168.152.8,100.97.112.76,5,0
2015-05-15 18:45:36.265,48,1431704732.371417,59.93364959171232,30.35731185168192,21.27803,-1,-1,10,65,-9999,1431704736.257058,0.4001312255859375,10.04592132568359,-40.526611328125,9.474327087402344,359.0787353515625,35,364005.576726375,0.013092041015625,-0.133148193359375,-0.953369140625,364005.565883375,0.7107465622492192,-0.004084490163854528,0.1007926577762289,364005.545905375,-0.4064515927489771,0.001815717492674546,0.09179551085919475,0.5595694780349731,0.03060882538557053,0.06869911402463913,0.006904696580022573,0.004935690201818943,-0.001999367261305451,XArbitraryZVertical,0.04512044774628693,-0.00837203924790037,-0.2015763565602628,0.9783971722311198,0.001808071858249605,-0.09166664630174637,-0.9957880973815918,0,0,0,-1,363997.172121,unknown,2,2015-05-15 18:45:27.829,null,0,0,0,0,null,0,0.6530304,100.0758,192.168.152.8,100.97.112.76,5,0
2015-05-15 18:45:36.276,49,1431704732.371417,59.93364959171232,30.35731185168192,21.27803,-1,-1,10,65,-9999,1431704736.257058,0.4001312255859375,10.04592132568359,-40.526611328125,9.474327087402344,359.0787353515625,35,364005.586608375,0.0124969482421875,-0.1281280517578125,-0.9383087158203125,364005.565883375,0.7107465622492192,-0.004084490163854528,0.1007926577762289,364005.555887375,-0.4053144821899191,0.001795215542442183,0.09840084862480164,0.6871657371520996,0.001456301077269018,0.1275980770587921,0.002638518577441573,0.00101312343031168,-0.004274486564099789,XArbitraryZVertical,0.04835453264670535,-0.009020539004155857,-0.2009860174108195,0.9783583647385483,0.001786530250683427,-0.09824212640523911,-0.9951609373092651,0,0,0,-1,363997.172121,unknown,2,2015-05-15 18:45:27.829,null,0,0,0,0,null,0,0.6530304,100.0758,192.168.152.8,100.97.112.76,5,0
2015-05-15 18:45:36.284,50,1431704732.371417,59.93364959171232,30.35731185168192,21.27803,-1,-1,10,65,-9999,1431704736.276885,0.3321990966796875,9.842811584472656,-40.526611328125,9.683158874511719,359.2875671386719,35,364005.596499375,0.009063720703125,-0.1382904052734375,-0.9339599609375,364005.585859375,0.5997758354189254,-0.001400822733381679,-0.01249661709908782,364005.575871375,-0.4032692504401423,0.001331535164482075,0.1131619400614553,0.7187743782997131,-0.02387747541069984,0.06804559379816055,0.01866599544882774,-0.01684016548097134,0.01952781900763512,XArbitraryZVertical,0.05553820386327606,-0.0106742501747482,-0.1999136859150158,0.9781799867502277,0.001323018339462578,-0.1129205748438835,-0.9936031103134155,0,0,0,-1,363997.172121,unknown,2,2015-05-15 18:45:27.829,null,0,0,0,0,null,0,0.6530304,100.0758,192.168.152.8,100.97.112.76,5,0
2015-05-15 18:45:36.294,51,1431704732.371417,59.93364959171232,30.35731185168192,21.27803,-1,-1,10,65,-9999,1431704736.276885,0.3321990966796875,9.842811584472656,-40.526611328125,9.683158874511719,359.2875671386719,35,364005.606359375,0.0047607421875,-0.1583099365234375,-0.935089111328125,364005.605837375,0.333509261207277,0.009032909785330761,-0.06771752861798983,364005.585859375,-0.4030615389622351,0.001108625925316438,0.1196954923512602,0.6286423206329346,-0.01791835390031338,0.006235719192773104,0.01199134718626738,-0.01373830903321505,0.03947529196739197,XArbitraryZVertical,0.05871225785658215,-0.01143041067706831,-0.1997784676002394,0.9780136913010936,0.001100693480111659,-0.1194098815321922,-0.9928444623947144,0,0,0,-1,363997.172121,unknown,2,2015-05-15 18:45:27.829,null,0,0,0,0,null,0,0.6530304,100.0758,192.168.152.8,100.97.112.76,5,0
2015-05-15 18:45:36.304,52,1431704732.371417,59.93364959171232,30.35731185168192,21.27803,-1,-1,10,65,-9999,1431704736.296297,0.3321990966796875,9.098075866699219,-40.65826416015625,9.758445739746094,359.3628540039062,35,364005.616256375,0.008544921875,-0.1789703369140625,-0.9412384033203125,364005.605837375,0.333509261207277,0.009032909785330761,-0.06771752861798983,364005.585859375,-0.4030615389622351,0.001108625925316438,0.1196954923512602,0.6286423206329346,-0.01791835390031338,0.006235719192773104,0.01199134718626738,-0.01373830903321505,0.03947529196739197,XArbitraryZVertical,0.05871225785658215,-0.01143041067706831,-0.1997784676002394,0.9780136913010936,0.001100693480111659,-0.1194098815321922,-0.9928444623947144,0,0,0,-1,363997.172121,unknown,2,2015-05-15 18:45:27.829,null,0,0,0,0,null,0,0.6530304,100.0758,192.168.152.8,100.97.112.76,5,0
2015-05-15 18:45:36.314,53,1431704732.371417,59.93364959171232,30.35731185168192,21.27803,-1,-1,10,65,-9999,1431704736.296297,0.3321990966796875,9.098075866699219,-40.65826416015625,9.758445739746094,359.3628540039062,35,364005.626140375,0.0104827880859375,-0.189666748046875,-0.9444732666015625,364005.605837375,0.333509261207277,0.009032909785330761,-0.06771752861798983,364005.595849375,-0.403373774317725,0.00106467582448026,0.1251032450694433,0.5105987191200256,-0.006783111020922661,-0.03984952345490456,0.01144059281796217,-0.003350879531353712,0.05387551337480545,XArbitraryZVertical,0.0613501698830246,-0.01200178650945563,-0.1998979050422964,0.9778205056837178,0.001056354958564043,-0.1247771754860878,-0.9921842217445374,0,0,0,-1,363997.172121,unknown,2,2015-05-15 18:45:27.829,null,0,0,0,0,null,0,0.6530304,100.0758,192.168.152.8,100.97.112.76,5,0
2015-05-15 18:45:36.331,54,1431704732.371417,59.93364959171232,30.35731185168192,21.27803,-1,-1,10,65,-9999,1431704736.316435,0.5020294189453125,8.861114501953125,-40.75701904296875,9.254600524902344,358.8590087890625,35,364005.636030375,0.0209503173828125,-0.1912078857421875,-0.9536590576171875,364005.625814375,-0.01574727152563854,0.01692998136574272,-0.03423413686464159,364005.605837375,-0.4038723318843903,0.001054985302023918,0.1291057906928234,0.3623756170272827,-0.007484554778784513,-0.04898526892066002,0.008017515763640404,-0.009542978368699551,0.05771690607070923,XArbitraryZVertical,0.06330284151271423,-0.01242246057757757,-0.2001154218978503,0.9776462809463426,0.001046204939484596,-0.128747433423996,-0.9916768670082092,0,0,0,-1,363997.172121,unknown,2,2015-05-15 18:45:27.829,null,0,0,0,0,null,0,0.6530304,100.0758,192.168.152.8,100.97.112.76,5,0
2015-05-15 18:45:36.336,55,1431704732.371417,59.93364959171232,30.35731185168192,21.27803,-1,-1,10,65,-9999,1431704736.316435,0.5020294189453125,8.861114501953125,-40.75701904296875,9.254600524902344,358.8590087890625,35,364005.645908375,0.055389404296875,-0.181427001953125,-0.9772491455078125,364005.625814375,-0.01574727152563854,0.01692998136574272,-0.03423413686464159,364005.615826375,-0.4042889021104816,0.001198432314821201,0.1325147562868416,0.1936254799365997,0.001273483969271183,-0.03481939807534218,0.003572817193344235,-0.02618267014622688,0.05614293739199638,XArbitraryZVertical,0.0649808126148891,-0.01270707167704905,-0.2002911413425699,0.9774965386235129,0.001187925110571086,-0.1321272701025009,-0.9912320375442505,0,0,0,-1,363997.172121,unknown,2,2015-05-15 18:45:27.829,null,0,0,0,0,null,0,0.6530304,100.0758,192.168.152.8,100.97.112.76,5,0
2015-05-15 18:45:36.343,56,1431704732.371417,59.93364959171232,30.35731185168192,21.27803,-1,-1,10,65,-9999,1431704736.337366,0.09442138671875,8.522590637207031,-40.55950927734375,10.47402191162109,0.07843017578125,35,364005.655777375,0.0276031494140625,-0.1995391845703125,-0.997222900390625,364005.645794375,-0.2874653364886791,0.04645937784865033,-0.08514099373372423,364005.635802375,-0.4045192536040774,0.001201203548702421,0.1319021178638193,-0.1619812101125717,-0.003607757622376084,-0.001478295889683068,0.009292018599808216,-0.05814677476882935,0.04683953896164894,XArbitraryZVertical,0.06468020926413222,-0.01265178945889612,-0.2004078784268311,0.9774932659703838,0.001190769020467997,-0.1315199732780457,-0.9913128018379211,0,0,0,-1,363997.172121,unknown,2,2015-05-15 18:45:27.829,null,0,0,0,0,null,0,0.6530304,100.0758,192.168.152.8,100.97.112.76,5,0
2015-05-15 18:45:36.353,57,1431704732.371417,59.93364959171232,30.35731185168192,21.27803,-1,-1,10,65,-9999,1431704736.337366,0.09442138671875,8.522590637207031,-40.55950927734375,10.47402191162109,0.07843017578125,35,364005.665665375,0.037078857421875,-0.1895599365234375,-1.000762939453125,364005.655781375,-0.2796010217896751,0.06881661519986552,-0.1361562412591731,364005.645794375,-0.4049042834681802,0.0014607636846013,0.1294709989155713,-0.2585949003696442,0.02994251251220703,-0.06640913337469101,0.01950178109109402,-0.06209829822182655,0.03797021508216858,XArbitraryZVertical,0.06351562498376638,-0.01229343682593598,-0.2006044885278709,0.9775338745927705,0.001448537106625736,-0.1291095912456512,-0.9916293025016785,0,0,0,-1,363997.172121,unknown,2,2015-05-15 18:45:27.829,null,0,0,0,0,null,0,0.6530304,100.0758,192.168.152.8,100.97.112.76,5,0
2015-05-15 18:45:36.364,58,1431704732.371417,59.93364959171232,30.35731185168192,21.27803,-1,-1,10,65,-9999,1431704736.356121,0.060455322265625,8.08251953125,-40.5924072265625,10.77044868469238,0.374857097864151,35,364005.675560375,0.03778076171875,-0.20458984375,-1.03961181640625,364005.665769375,-0.1758852784009752,0.2148457272521804,-0.1075008942460295,364005.645794375,-0.4049042834681802,0.0014607636846013,0.1294709989155713,-0.2585949003696442,0.02994251251220703,-0.06640913337469101,0.01950178109109402,-0.06209829822182655,0.03797021508216858,XArbitraryZVertical,0.06351562498376638,-0.01229343682593598,-0.2006044885278709,0.9775338745927705,0.001448537106625736,-0.1291095912456512,-0.9916293025016785,0,0,0,-1,363997.172121,unknown,2,2015-05-15 18:45:27.829,null,0,0,0,0,null,0,0.6530304,100.0758,192.168.152.8,100.97.112.76,5,0
2015-05-15 18:45:36.373,59,1431704732.371417,59.93364959171232,30.35731185168192,21.27803,-1,-1,10,65,-9999,1431704736.356121,0.060455322265625,8.08251953125,-40.5924072265625,10.77044868469238,0.374857097864151,35,364005.685444375,0.030181884765625,-0.202484130859375,-1.058609008789062,364005.665769375,-0.1758852784009752,0.2148457272521804,-0.1075008942460295,364005.655781375,-0.4062522425258569,0.003769179696039226,0.1286053165910528,-0.2507237493991852,0.0523068942129612,-0.1174260377883911,0.0238651055842638,-0.07128807902336121,-0.00548821734264493,XArbitraryZVertical,0.06331653354091639,-0.01112092551647745,-0.2011962730808546,0.9774392059327006,0.003738043829798698,-0.1282511055469513,-0.9917346835136414,0,0,0,-1,363997.172121,unknown,2,2015-05-15 18:45:27.829,null,0,0,0,0,null,0,0.6530304,100.0758,192.168.152.8,100.97.112.76,5,0
2015-05-15 18:45:36.383,60,1431704732.371417,59.93364959171232,30.35731185168192,21.27803,-1,-1,10,65,-9999,1431704736.376052,0.060455322265625,7.81170654296875,-40.5924072265625,10.86648368835449,0.4708919823169708,35,364005.695327375,0.033966064453125,-0.197601318359375,-1.081008911132812,364005.685746375,0.1954019881335119,0.1825857917036146,0.02134816561418418,364005.665769375,-0.4072407231095317,0.005476605107094107,0.126810090764246,-0.1470080763101578,0.19833604991436,-0.08877072483301163,0.0316462554037571,-0.06308943778276443,-0.008807445876300335,XArbitraryZVertical,0.06260594002572951,-0.01013655161304346,-0.2016391999709727,0.9774044094590081,0.005432602949440479,-0.1264704912900925,-0.9919555187225342,0,0,0,-1,363997.172121,unknown,2,2015-05-15 18:45:27.829,null,0,0,0,0,null,0,0.6530304,100.0758,192.168.152.8,100.97.112.76,5,0
2015-05-15 18:45:36.394,61,1431704732.371417,59.93364959171232,30.35731185168192,21.27803,-1,-1,10,65,-9999,1431704736.376052,0.060455322265625,7.81170654296875,-40.5924072265625,10.86648368835449,0.4708919823169708,35,364005.705214375,0.036834716796875,-0.213531494140625,-1.081558227539062,364005.685746375,0.1954019881335119,0.1825857917036146,0.02134816561418418,364005.675751375,-0.4077020296258331,0.008137082427984181,0.1265844607587467,0.02396041713654995,0.2639390528202057,-0.02992608211934566,0.0297088734805584,-0.07834316790103912,-0.04764577746391296,XArbitraryZVertical,0.06276182232426761,-0.008828042817457336,-0.2017830742033845,0.9773774144533609,0.00807188730686903,-0.1262466758489609,-0.9919660091400146,0,0,0,-1,363997.172121,unknown,2,2015-05-15 18:45:27.829,null,0,0,0,0,null,0,0.6530304,100.0758,192.168.152.8,100.97.112.76,5,0
2015-05-15 18:45:36.411,62,1431704732.371417,59.93364959171232,30.35731185168192,21.27803,-1,-1,10,65,-9999,1431704736.396782,-0.2112808227539062,7.743995666503906,-40.46075439453125,12.50148963928223,2.105898380279541,35,364005.715098375,0.03759765625,-0.2308807373046875,-1.067642211914062,364005.705732375,0.4530804004618727,0.01380556077486176,0.1481649672465584,364005.695734375,-0.4066713182514562,0.01121582078541574,0.1336768806393187,0.3788455426692963,0.039315115660429,0.1094084531068802,0.02285053767263889,-0.06432220339775085,-0.0899927020072937,XArbitraryZVertical,0.06654161814917502,-0.008006834459370376,-0.2011164951037318,0.9772718450120087,0.01111552584916353,-0.1332791149616241,-0.9910162091255188,0,0,0,-1,363997.172121,unknown,2,2015-05-15 18:45:27.829,null,0,0,0,0,null,0,0.6530304,100.0758,192.168.152.8,100.97.112.76,5,0
2015-05-15 18:45:36.413,63,1431704732.371417,59.93364959171232,30.35731185168192,21.27803,-1,-1,10,65,-9999,1431704736.396782,-0.2112808227539062,7.743995666503906,-40.46075439453125,12.50148963928223,2.105898380279541,35,364005.724992375,0.027435302734375,-0.23529052734375,-1.052215576171875,364005.715712375,0.5274140201759464,0.01733797764474286,0.1842366852633547,364005.695734375,-0.4066713182514562,0.01121582078541574,0.1336768806393187,0.3788455426692963,0.039315115660429,0.1094084531068802,0.02285053767263889,-0.06432220339775085,-0.0899927020072937,XArbitraryZVertical,0.06654161814917502,-0.008006834459370376,-0.2011164951037318,0.9772718450120087,0.01111552584916353,-0.1332791149616241,-0.9910162091255188,0,0,0,-1,363997.172121,unknown,2,2015-05-15 18:45:27.829,null,0,0,0,0,null,0,0.6530304,100.0758,192.168.152.8,100.97.112.76,5,0
2015-05-15 18:45:36.423,64,1431704732.371417,59.93364959171232,30.35731185168192,21.27803,-1,-1,10,65,-9999,1431704736.416165,-0.4830245971679688,7.608596801757812,-40.72412109375,14.28801536560059,3.892423391342163,35,364005.734866375,0.031707763671875,-0.2232208251953125,-1.0367431640625,364005.725700375,0.583597664428912,0.05690722512114019,0.206431203471966,364005.705732375,-0.4051772708991845,0.01104352252154071,0.1382741339310876,0.4819652140140533,-0.002701543970033526,0.1668943613767624,0.02589682303369045,-0.07569756358861923,-0.091163270175457,XArbitraryZVertical,0.06877652488290416,-0.00850359385123407,-0.2003483026048285,0.977270707716119,0.01093789376318455,-0.1378339231014252,-0.9903949499130249,0,0,0,-1,363997.172121,unknown,2,2015-05-15 18:45:27.829,null,0,0,0,0,null,0,0.6530304,100.0758,192.168.152.8,100.97.112.76,5,0
2015-05-15 18:45:36.433,65,1431704732.371417,59.93364959171232,30.35731185168192,21.27803,-1,-1,10,65,-9999,1431704736.416165,-0.4830245971679688,7.608596801757812,-40.72412109375,14.28801536560059,3.892423391342163,35,364005.744751375,0.0326690673828125,-0.2217559814453125,-1.054458618164062,364005.725700375,0.583597664428912,0.05690722512114019,0.206431203471966,364005.715712375,-0.403255806213741,0.01074384430041589,0.1436657515306553,0.5562987923622131,0.0008309060940518975,0.202966034412384,0.0269647017121315,-0.08770868182182312,-0.07800152152776718,XArbitraryZVertical,0.07138917822307783,-0.009123501779403666,-0.1993674451019367,0.9772783476478932,0.0106329545378685,-0.1431720554828644,-0.9896407127380371,0,0,0,-1,363997.172121,unknown,2,2015-05-15 18:45:27.829,null,0,0,0,0,null,0,0.6530304,100.0758,192.168.152.8,100.97.112.76,5,0
2015-05-15 18:45:36.443,66,1431704732.371417,59.93364959171232,30.35731185168192,21.27803,-1,-1,10,65,-9999,1431704736.436436,-0.109375,7.507034301757812,-40.62530517578125,13.22603607177734,2.830444812774658,35,364005.754635375,0.022674560546875,-0.2200775146484375,-1.073760986328125,364005.745678375,0.7005823416328227,0.1573241108675589,0.2050988239785994,364005.725700375,-0.4011323926885225,0.01081762793482395,0.1502715669071059,0.6124848127365112,0.04040071740746498,0.2251603603363037,0.01673979312181473,-0.0855838805437088,-0.06354296952486038,XArbitraryZVertical,0.07463379350002174,-0.009669159651954461,-0.1982613465160879,0.9772557202170802,0.01069550961256027,-0.1497066468000412,-0.9886726140975952,0,0,0,-1,363997.172121,unknown,2,2015-05-15 18:45:27.829,null,0,0,0,0,null,0,0.6530304,100.0758,192.168.152.8,100.97.112.76,5,0
2015-05-15 18:45:36.453,67,1431704732.371417,59.93364959171232,30.35731185168192,21.27803,-1,-1,10,65,-9999,1431704736.436436,-0.109375,7.507034301757812,-40.62530517578125,13.22603607177734,2.830444812774658,35,364005.7645193751,0.021881103515625,-0.23004150390625,-1.106170654296875,364005.745678375,0.7005823416328227,0.1573241108675589,0.2050988239785994,364005.735687375,-0.3988577539812804,0.01137404614480202,0.1568326203413178,0.6697949171066284,0.1054753586649895,0.2304333746433258,0.02047355473041534,-0.06703033298254013,-0.04908010363578796,XArbitraryZVertical,0.07790528530089184,-0.009961707612859985,-0.1970609123246662,0.9772402610092095,0.01123420987278223,-0.1561904847621918,-0.9876630902290344,0,0,0,-1,363997.172121,unknown,2,2015-05-15 18:45:27.829,null,0,0,0,0,null,0,0.6530304,100.0758,192.168.152.8,100.97.112.76,5,0
2015-05-15 18:45:36.462,68,1431704732.371417,59.93364959171232,30.35731185168192,21.27803,-1,-1,10,65,-9999,1431704736.457194,0.02649688720703125,7.16851806640625,-40.4278564453125,12.60548877716064,2.20989727973938,35,364005.774397375,0.0264739990234375,-0.2579345703125,-1.127243041992188,364005.765655375,0.7703736737916572,0.09710524493090522,0.1842012652208566,364005.755666375,-0.3945480688406259,0.01328277930890108,0.1716404278156966,0.7723371386528015,0.1155264601111412,0.2145624607801437,0.009587344713509083,-0.0492786131799221,-0.08854199200868607,XArbitraryZVertical,0.08534746188329273,-0.01031093067427589,-0.1947131141670953,0.9770856147902379,0.01308721583336592,-0.1707988977432251,-0.9852190017700195,0,0,0,-1,363997.172121,unknown,2,2015-05-15 18:45:27.829,null,0,0,0,0,null,0,0.6530304,100.0758,192.168.152.8,100.97.112.76,5,0
