loggingTime,loggingSample,locationTimestamp_since1970,locationLatitude,locationLongitude,locationAltitude,locationSpeed,locationCourse,locationVerticalAccuracy,locationHorizontalAccuracy,locationFloor,locationHeadingTimestamp_since1970,locationHeadingX,locationHeadingY,locationHeadingZ,locationTrueHeading,locationMagneticHeading,locationHeadingAccuracy,accelerometerTimestamp_sinceReboot,accelerometerAccelerationX,accelerometerAccelerationY,accelerometerAccelerationZ,gyroTimestamp_sinceReboot,gyroRotationX,gyroRotationY,gyroRotationZ,motionTimestamp_sinceReboot,motionYaw,motionRoll,motionPitch,motionRotationRateX,motionRotationRateY,motionRotationRateZ,motionUserAccelerationX,motionUserAccelerationY,motionUserAccelerationZ,motionAttitudeReferenceFrame,motionQuaternionX,motionQuaternionY,motionQuaternionZ,motionQuaternionW,motionGravityX,motionGravityY,motionGravityZ,motionMagneticFieldX,motionMagneticFieldY,motionMagneticFieldZ,motionMagneticFieldCalibrationAccuracy,activityTimestamp_sinceReboot,activity,activityActivityConfidence,activityActivityStartDate,pedometerStartDate,pedometerNumberofSteps,pedometerDistance,pedometerFloorAscended,pedometerFloorDescended,pedometerEndDate,altimeterTimestamp_sinceReboot,altimeterReset,altimeterRelativeAltitude,altimeterPressure,IP_en0,IP_pdp_ip0,deviceOrientation,state
2015-05-14 21:33:19.276,1,1431628393.134392,59.93365094508074,30.35731482440787,21.269,-1,-1,10,65,-9999,1431628399.222733,-12.26124572753906,-4.584152221679688,-43.56588745117188,55.95196151733398,45.55683517456055,20,309146.416699375,-0.0468292236328125,-0.32470703125,-0.9501495361328125,309146.409747375,-0.005346029572225063,-0.0223369973269306,0.01048832732105906,309146.389770375,-0.03728627344859464,-0.03427161519560307,0.3237336884269695,-0.1013026833534241,0.06289300322532654,0.002985687926411629,-0.007584587670862675,-0.01837830804288387,-0.04047847539186478,XArbitraryZVertical,-0.1607940090686372,0.01991197441246862,0.02115667691376995,-0.9865602844958833,-0.0324849933385849,-0.3181084990501404,-0.9474976062774658,0,0,0,-1,309140.3202222917,unknown,2,2015-05-14 21:33:13.146,null,0,0,0,0,null,0,0.3645325,99.755,192.168.152.8,100.96.38.157,5,0
2015-05-14 21:33:19.287,2,1431628393.134392,59.93365094508074,30.35731482440787,21.269,-1,-1,10,65,-9999,1431628399.283078,-12.12548065185547,-4.448638916015625,-42.97454833984375,56.03332901000977,45.63820266723633,20,309146.426586375,-0.0477294921875,-0.316802978515625,-0.922393798828125,309146.409747375,-0.005346029572225063,-0.0223369973269306,0.01048832732105906,309146.399759375,-0.03708794119182536,-0.03401690234170818,0.3231650888935388,-0.05440379306674004,0.03867718204855919,0.01831837743520737,-0.01576961018145084,-0.02308307215571404,-0.04134246706962585,XArbitraryZVertical,-0.1605181479805717,0.01976596001749991,0.02103444226047759,-0.9866107556844614,-0.03224979713559151,-0.3175694048404694,-0.9476864337921143,0,0,0,-1,309140.3202222917,unknown,2,2015-05-14 21:33:13.146,null,0,0,0,0,null,0,0.3645325,99.755,192.168.152.8,100.96.38.157,5,0
2015-05-14 21:33:19.305,3,1431628393.134392,59.93365094508074,30.35731482440787,21.269,-1,-1,10,65,-9999,1431628399.283078,-12.12548065185547,-4.448638916015625,-42.97454833984375,56.03332901000977,45.63820266723633,20,309146.436484375,-0.040924072265625,-0.3113555908203125,-0.9125213623046875,309146.429725375,0.04887433232513418,0.07566120551747818,-0.009704026380030728,309146.409747375,-0.0368115212162549,-0.03433632924069286,0.3232006282868496,0.02262595295906067,-0.03744897991418839,0.02836351841688156,-0.01560461241751909,-0.016915338113904,-0.03420772776007652,XArbitraryZVertical,-0.1605350720986515,0.01990162350087197,0.02092396809857197,-0.9866076239150597,-0.03255212679505348,-0.3176030814647675,-0.9476648569107056,0,0,0,-1,309140.3202222917,unknown,2,2015-05-14 21:33:13.146,null,0,0,0,0,null,0,0.3645325,99.755,192.168.152.8,100.96.38.157,5,0
2015-05-14 21:33:19.306,4,1431628393.134392,59.93365094508074,30.35731482440787,21.269,-1,-1,10,65,-9999,1431628399.304288,-12.29520416259766,-4.143730163574219,-43.07308959960938,56.05344390869141,45.65831756591797,20,309146.446361375,-0.034637451171875,-0.3059844970703125,-0.91339111328125,309146.429725375,0.04887433232513418,0.07566120551747818,-0.009704026380030728,309146.419737375,-0.03654113586419109,-0.03458226843499469,0.3238013955685783,0.0705564022064209,-3.766288136830553e-05,0.0216379351913929,-0.01405063457787037,-0.006534332875162363,-0.002683601109310985,XArbitraryZVertical,-0.1608315875493585,0.0200058222341057,0.02081456828609898,-0.9865595376205903,-0.03277859091758728,-0.3181726932525635,-0.9474659562110901,0,0,0,-1,309140.3202222917,unknown,2,2015-05-14 21:33:13.146,null,0,0,0,0,null,0,0.3645325,99.755,192.168.152.8,100.96.38.157,5,0
2015-05-14 21:33:19.307,5,1431628393.134392,59.93365094508074,30.35731482440787,21.269,-1,-1,10,65,-9999,1431628399.304288,-12.29520416259766,-4.143730163574219,-43.07308959960938,56.05344390869141,45.65831756591797,20,309146.456258375,-0.01739501953125,-0.303558349609375,-0.913665771484375,309146.449702375,-0.0172551533348414,0.1167833422255007,-0.02942686478093955,309146.439713375,-0.03633442932759186,-0.03345839770153893,0.3251879626087048,0.0448315441608429,0.09545716643333435,-0.00586749380454421,-0.009225120767951012,0.00813131220638752,0.03453898057341576,XArbitraryZVertical,-0.1615292719570858,0.01944536670684146,0.02063163181339972,-0.9864605961635599,-0.03169894963502884,-0.3194869160652161,-0.9470603466033936,0,0,0,-1,309140.3202222917,unknown,2,2015-05-14 21:33:13.146,null,0,0,0,0,null,0,0.3645325,99.755,192.168.152.8,100.96.38.157,5,0
2015-05-14 21:33:19.308,6,1431628393.134392,59.93365094508074,30.35731482440787,21.269,-1,-1,10,65,-9999,1431628399.304288,-12.29520416259766,-4.143730163574219,-43.07308959960938,56.05344390869141,45.65831756591797,20,309146.466120375,-0.0083770751953125,-0.2975311279296875,-0.9112548828125,309146.459691375,-0.04495096340722945,0.1060284324793247,-0.02979704417246056,309146.439713375,-0.03633442932759186,-0.03345839770153893,0.3251879626087048,0.0448315441608429,0.09545716643333435,-0.00586749380454421,-0.009225120767951012,0.00813131220638752,0.03453898057341576,XArbitraryZVertical,-0.1615292719570858,0.01944536670684146,0.02063163181339972,-0.9864605961635599,-0.03169894963502884,-0.3194869160652161,-0.9470603466033936,0,0,0,-1,309140.3202222917,unknown,2,2015-05-14 21:33:13.146,null,0,0,0,0,null,0,0.2866364,99.75592,192.168.152.8,100.96.38.157,5,0
2015-05-14 21:33:19.310,7,1431628393.134392,59.93365094508074,30.35731482440787,21.269,-1,-1,10,65,-9999,1431628399.304288,-12.29520416259766,-4.143730163574219,-43.07308959960938,56.05344390869141,45.65831756591797,20,309146.476019375,-0.012115478515625,-0.29705810546875,-0.895721435546875,309146.469679375,-0.06095016997198948,0.07726655902257795,-0.01839658417804936,309146.449702375,-0.03643775891553996,-0.03242545245533751,0.3253728797484771,0.01071692910045385,0.1016706302762032,-0.01155151426792145,-0.003918693866580725,0.01367762591689825,0.03364240378141403,XArbitraryZVertical,-0.1616301432564693,0.01894564942202739,0.02060037559095508,-0.9864544508918706,-0.03071875683963299,-0.3196621239185333,-0.9470335245132446,0,0,0,-1,309140.3202222917,unknown,2,2015-05-14 21:33:13.146,null,0,0,0,0,null,0,0.2866364,99.75592,192.168.152.8,100.96.38.157,5,0
2015-05-14 21:33:19.312,8,1431628393.134392,59.93365094508074,30.35731482440787,21.269,-1,-1,10,65,-9999,1431628399.304288,-12.29520416259766,-4.143730163574219,-43.07308959960938,56.05344390869141,45.65831756591797,20,309146.485905375,-0.0162811279296875,-0.3022613525390625,-0.90997314453125,309146.479669375,-0.06639473650454747,0.09211261683533367,-0.01303883669702795,309146.469679375,-0.03661979251986942,-0.03074245768263612,0.3249750543532398,-0.03297819942235947,0.0621539019048214,-0.0005213047843426466,0.02075169235467911,0.02175401896238327,0.03595602884888649,XArbitraryZVertical,-0.161449529325312,0.01812715793830182,0.02055171509465147,-0.9865004220132818,-0.02912876754999161,-0.3192851543426514,-0.9472109079360962,0,0,0,-1,309140.3202222917,unknown,2,2015-05-14 21:33:13.146,null,0,0,0,0,null,0,0.2866364,99.75592,192.168.152.8,100.96.38.157,5,0
2015-05-14 21:33:19.313,9,1431628393.134392,59.93365094508074,30.35731482440787,21.269,-1,-1,10,65,-9999,1431628399.304288,-12.29520416259766,-4.143730163574219,-43.07308959960938,56.05344390869141,45.65831756591797,20,309146.495780375,-0.016143798828125,-0.31024169921875,-0.9228515625,309146.489659375,-0.07476558444288453,0.06126548824505486,-0.01757313476899686,309146.469679375,-0.03661979251986942,-0.03074245768263612,0.3249750543532398,-0.03297819942235947,0.0621539019048214,-0.0005213047843426466,0.02075169235467911,0.02175401896238327,0.03595602884888649,XArbitraryZVertical,-0.161449529325312,0.01812715793830182,0.02055171509465147,-0.9865004220132818,-0.02912876754999161,-0.3192851543426514,-0.9472109079360962,0,0,0,-1,309140.3202222917,unknown,2,2015-05-14 21:33:13.146,null,0,0,0,0,null,0,0.2866364,99.75592,192.168.152.8,100.96.38.157,5,0
2015-05-14 21:33:19.317,10,1431628393.134392,59.93365094508074,30.35731482440787,21.269,-1,-1,10,65,-9999,1431628399.304288,-12.29520416259766,-4.143730163574219,-43.07308959960938,56.05344390869141,45.65831756591797,20,309146.505678375,-0.0207977294921875,-0.311126708984375,-0.93206787109375,309146.499647375,-0.08745022071493194,0.009147958344422183,-0.008399876394218925,309146.479669375,-0.0366731209964991,-0.02971244320312384,0.3245177482592581,-0.03842325508594513,0.07700136303901672,0.004835920408368111,0.01604196801781654,0.02179363742470741,0.05166482552886009,XArbitraryZVertical,-0.1612340296616671,0.0176198180645677,0.02049219534858526,-0.9865460960442889,-0.02815744653344154,-0.3188517391681671,-0.9473862648010254,0,0,0,-1,309140.3202222917,unknown,2,2015-05-14 21:33:13.146,null,0,0,0,0,null,0,0.2866364,99.75592,192.168.152.8,100.96.38.157,5,0
2015-05-14 21:33:19.339,11,1431628393.134392,59.93365094508074,30.35731482440787,21.269,-1,-1,10,65,-9999,1431628399.323852,-12.26125335693359,-4.1776123046875,-42.97454833984375,56.07870864868164,45.6835823059082,20,309146.515565375,-0.0304718017578125,-0.3106842041015625,-0.94482421875,309146.499647375,-0.08745022071493194,0.009147958344422183,-0.008399876394218925,309146.489659375,-0.03668272168310072,-0.02914746838897372,0.3240766805037135,-0.04679415747523308,0.04615426808595657,0.0003015862021129578,0.0113451611250639,0.01617231220006943,0.03756935521960258,XArbitraryZVertical,-0.1610221379031236,0.01733843209688418,0.02044886543198007,-0.9865865870667783,-0.0276262890547514,-0.3184336721897125,-0.9475424885749817,0,0,0,-1,309140.3202222917,unknown,2,2015-05-14 21:33:13.146,null,0,0,0,0,null,0,0.2866364,99.75592,192.168.152.8,100.96.38.157,5,0
2015-05-14 21:33:19.341,12,1431628393.134392,59.93365094508074,30.35731482440787,21.269,-1,-1,10,65,-9999,1431628399.323852,-12.26125335693359,-4.1776123046875,-42.97454833984375,56.07870864868164,45.6835823059082,20,309146.525441375,-0.032623291015625,-0.31378173828125,-0.95098876953125,309146.509636375,-0.09697475003749133,-0.02276896205574145,-0.00334785980633861,309146.489659375,-0.03668272168310072,-0.02914746838897372,0.3240766805037135,-0.04679415747523308,0.04615426808595657,0.0003015862021129578,0.0113451611250639,0.01617231220006943,0.03756935521960258,XArbitraryZVertical,-0.1610221379031236,0.01733843209688418,0.02044886543198007,-0.9865865870667783,-0.0276262890547514,-0.3184336721897125,-0.9475424885749817,0,0,0,-1,309140.3202222917,unknown,2,2015-05-14 21:33:13.146,null,0,0,0,0,null,0,0.2866364,99.75592,192.168.152.8,100.96.38.157,5,0
2015-05-14 21:33:19.347,13,1431628393.134392,59.93365094508074,30.35731482440787,21.269,-1,-1,10,65,-9999,1431628399.342146,-12.02365875244141,-4.143730163574219,-42.94171142578125,56.09899520874023,45.7038688659668,20,309146.535340375,-0.03173828125,-0.312774658203125,-0.948394775390625,309146.529613375,-0.1054547875805216,-0.02387044548259823,-0.008785235803953391,309146.509636375,-0.03649972169301724,-0.02943635594165397,0.3228405621286979,-0.06900343298912048,-0.03788012266159058,0.01452679000794888,0.007113855332136154,0.00613494124263525,0.01585933566093445,XArbitraryZVertical,-0.1604109285613428,0.01745653890580549,0.02037469114954813,-0.986685600993588,-0.02791158482432365,-0.3172616362571716,-0.9479271769523621,0,0,0,-1,309140.3202222917,unknown,2,2015-05-14 21:33:13.146,null,0,0,0,0,null,0,0.2866364,99.75592,192.168.152.8,100.96.38.157,5,0
2015-05-14 21:33:19.356,14,1431628393.134392,59.93365094508074,30.35731482440787,21.269,-1,-1,10,65,-9999,1431628399.342146,-12.02365875244141,-4.143730163574219,-42.94171142578125,56.09899520874023,45.7038688659668,20,309146.545217375,-0.0319366455078125,-0.3131561279296875,-0.9484100341796875,309146.539602375,-0.09804107973795906,-0.01533687840165733,-0.006520217296840999,309146.529613375,-0.03631420559733697,-0.03026000779123209,0.3211665997087444,-0.07748405635356903,-0.03898176923394203,0.00908943172544241,-0.00391492573544383,0.001891985768452287,-0.002555361483246088,XArbitraryZVertical,-0.1595782175730303,0.01783503299362019,0.02033916693845752,-0.9868145835781816,-0.02870836481451988,-0.3156737387180328,-0.9484333992004395,0,0,0,-1,309140.3202222917,unknown,2,2015-05-14 21:33:13.146,null,0,0,0,0,null,0,0.2866364,99.75592,192.168.152.8,100.96.38.157,5,0
2015-05-14 21:33:19.368,15,1431628393.134392,59.93365094508074,30.35731482440787,21.269,-1,-1,10,65,-9999,1431628399.36212,-11.95577239990234,-3.940467834472656,-43.20449829101562,56.10982894897461,45.71470260620117,20,309146.555102375,-0.03216552734375,-0.3164825439453125,-0.9525299072265625,309146.549590375,-0.08210578903936093,0.009173524690886944,-0.009407083918486893,309146.529613375,-0.03631420559733697,-0.03026000779123209,0.3211665997087444,-0.07748405635356903,-0.03898176923394203,0.00908943172544241,-0.00391492573544383,0.001891985768452287,-0.002555361483246088,XArbitraryZVertical,-0.1595782175730303,0.01783503299362019,0.02033916693845752,-0.9868145835781816,-0.02870836481451988,-0.3156737387180328,-0.9484333992004395,0,0,0,-1,309140.3202222917,unknown,2,2015-05-14 21:33:13.146,null,0,0,0,0,null,0,0.2866364,99.75592,192.168.152.8,100.96.38.157,5,0
2015-05-14 21:33:19.376,16,1431628393.134392,59.93365094508074,30.35731482440787,21.269,-1,-1,10,65,-9999,1431628399.36212,-11.95577239990234,-3.940467834472656,-43.20449829101562,56.10982894897461,45.71470260620117,20,309146.565002375,-0.03070068359375,-0.3134307861328125,-0.947418212890625,309146.559578375,-0.07143290465475938,0.008161789792765842,-0.009293100623831502,309146.539602375,-0.03621882506654097,-0.03063148788539118,0.3204318212731199,-0.07007040828466415,-0.03044817037880421,0.0113544138148427,-0.002670497866347432,0.002201773226261139,0.0002594881225377321,XArbitraryZVertical,-0.1592127086244519,0.01800504532948904,0.0203172542750654,-0.9868709849488281,-0.02906778268516064,-0.3149764239788055,-0.9486542344093323,0,0,0,-1,309140.3202222917,unknown,2,2015-05-14 21:33:13.146,null,0,0,0,0,null,0,0.2866364,99.75592,192.168.152.8,100.96.38.157,5,0
2015-05-14 21:33:19.386,17,1431628393.134392,59.93365094508074,30.35731482440787,21.269,-1,-1,10,65,-9999,1431628399.382698,-11.78606414794922,-3.838836669921875,-43.171630859375,56.11411285400391,45.71898651123047,20,309146.574890375,-0.0306243896484375,-0.3179931640625,-0.9459228515625,309146.559578375,-0.07143290465475938,0.008161789792765842,-0.009293100623831502,309146.549590375,-0.0361436291004683,-0.03077299477720464,0.3198515419657977,-0.05413516610860825,-0.005937737878412008,0.008467512205243111,-0.002729002619162202,0.00126950757112354,0.0004226345918141305,XArbitraryZVertical,-0.1589255874834672,0.01806441974878671,0.02028784406173804,-0.9869167836071592,-0.02920764312148094,-0.3144256472587585,-0.9488326907157898,0,0,0,-1,309140.3202222917,unknown,2,2015-05-14 21:33:13.146,null,0,0,0,0,null,0,0.2866364,99.75592,192.168.152.8,100.96.38.157,5,0
2015-05-14 21:33:19.398,18,1431628393.134392,59.93365094508074,30.35731482440787,21.269,-1,-1,10,65,-9999,1431628399.382698,-11.78606414794922,-3.838836669921875,-43.171630859375,56.11411285400391,45.71898651123047,20,309146.584778375,-0.0321502685546875,-0.3172149658203125,-0.943084716796875,309146.569568375,-0.07563377495825037,-0.01098074580661471,-0.008379370053825315,309146.549590375,-0.0361436291004683,-0.03077299477720464,0.3198515419657977,-0.05413516610860825,-0.005937737878412008,0.008467512205243111,-0.002729002619162202,0.00126950757112354,0.0004226345918141305,XArbitraryZVertical,-0.1589255874834672,0.01806441974878671,0.02028784406173804,-0.9869167836071592,-0.02920764312148094,-0.3144256472587585,-0.9488326907157898,0,0,0,-1,309140.3202222917,unknown,2,2015-05-14 21:33:13.146,null,0,0,0,0,null,0,0.2866364,99.75592,192.168.152.8,100.96.38.157,5,0
2015-05-14 21:33:19.407,19,1431628393.134392,59.93365094508074,30.35731482440787,21.269,-1,-1,10,65,-9999,1431628399.401894,-11.71817016601562,-4.042098999023438,-43.171630859375,56.12329864501953,45.72817230224609,20,309146.594665375,-0.037994384765625,-0.311279296875,-0.9425506591796875,309146.589552375,-0.08957435800037915,-0.01848553375845801,0.002095108829565337,309146.569568375,-0.03597564854606293,-0.03112868092960029,0.3189560382176225,-0.04766316339373589,-0.02609221450984478,0.009495246224105358,-0.001146804192103446,0.0001446377427782863,0.001685059512965381,XArbitraryZVertical,-0.1584815593410326,0.01821974562155882,0.02022761801898355,-0.9869865650998485,-0.02955387905240059,-0.31357541680336,-0.9491032958030701,0,0,0,-1,309140.3202222917,unknown,2,2015-05-14 21:33:13.146,null,0,0,0,0,null,0,0.2866364,99.75592,192.168.152.8,100.96.38.157,5,0
2015-05-14 21:33:19.421,20,1431628393.134392,59.93365094508074,30.35731482440787,21.269,-1,-1,10,65,-9999,1431628399.401894,-11.71817016601562,-4.042098999023438,-43.171630859375,56.12329864501953,45.72817230224609,20,309146.604543375,-0.0331878662109375,-0.30755615234375,-0.9380035400390625,309146.599534375,-0.08104531829329138,0.0006788397618611978,-0.005173456733587928,309146.589552375,-0.03563855058906432,-0.03200043259211627,0.3177954513040721,-0.06160386279225349,-0.0335969403386116,0.01996965333819389,-0.001757394638843834,-0.004741803742945194,0.006355537101626396,XArbitraryZVertical,-0.1579030503824981,0.01861450046436711,0.02012281311390017,-0.9870740597567877,-0.03039287403225899,-0.3124731481075287,-0.9494402408599854,0,0,0,-1,309140.3202222917,unknown,2,2015-05-14 21:33:13.146,null,0,0,0,0,null,0,0.2866364,99.75592,192.168.152.8,100.96.38.157,5,0
2015-05-14 21:33:19.426,21,1431628393.134392,59.93365094508074,30.35731482440787,21.269,-1,-1,10,65,-9999,1431628399.421798,-11.88787841796875,-4.21148681640625,-43.20443725585938,56.14274597167969,45.74761962890625,20,309146.614431375,-0.029541015625,-0.3055267333984375,-0.9358367919921875,309146.599534375,-0.08104531829329138,0.0006788397618611978,-0.005173456733587928,309146.589552375,-0.03563855058906432,-0.03200043259211627,0.3177954513040721,-0.06160386279225349,-0.0335969403386116,0.01996965333819389,-0.001757394638843834,-0.004741803742945194,0.006355537101626396,XArbitraryZVertical,-0.1579030503824981,0.01861450046436711,0.02012281311390017,-0.9870740597567877,-0.03039287403225899,-0.3124731481075287,-0.9494402408599854,0,0,0,-1,309140.3202222917,unknown,2,2015-05-14 21:33:13.146,null,0,0,0,0,null,0,0.2866364,99.75592,192.168.152.8,100.96.38.157,5,0
2015-05-14 21:33:19.435,22,1431628393.134392,59.93365094508074,30.35731482440787,21.269,-1,-1,10,65,-9999,1431628399.421798,-11.88787841796875,-4.21148681640625,-43.20443725585938,56.14274597167969,45.74761962890625,20,309146.624306375,-0.0308074951171875,-0.3057098388671875,-0.937103271484375,309146.619498375,-0.04160976150361603,0.03061356936267886,-0.01310301887929886,309146.599534375,-0.03545053376991507,-0.03240103104946714,0.317254384940885,-0.05307473242282867,-0.0144333029165864,0.01270131953060627,-0.007215696386992931,0.0006798462709411979,0.007046184502542019,XArbitraryZVertical,-0.157633718299004,0.01879332500908181,0.02005807875740374,-0.9871150364911346,-0.03077868744730949,-0.3119591474533081,-0.9495968222618103,0,0,0,-1,309140.3202222917,unknown,2,2015-05-14 21:33:13.146,null,0,0,0,0,null,0,0.2866364,99.75592,192.168.152.8,100.96.38.157,5,0
2015-05-14 21:33:19.445,23,1431628393.134392,59.93365094508074,30.35731482440787,21.269,-1,-1,10,65,-9999,1431628399.442613,-12.02365112304688,-4.211479187011719,-43.07302856445312,56.16725540161133,45.77212905883789,20,309146.634206375,-0.0321502685546875,-0.308685302734375,-0.94219970703125,309146.619498375,-0.04160976150361603,0.03061356936267886,-0.01310301887929886,309146.609510375,-0.03535923237973718,-0.03251482264267848,0.3168737149860291,-0.03280338272452354,0.0005368817946873605,0.006608335766941309,-0.002297263592481613,0.004041295498609543,0.01170841697603464,XArbitraryZVertical,-0.157445534527058,0.0188394577830107,0.02001946116080769,-0.9871449739844502,-0.03089060261845589,-0.3115974366664886,-0.9497119784355164,0,0,0,-1,309140.3202222917,unknown,2,2015-05-14 21:33:13.146,null,0,0,0,0,null,0,0.2866364,99.75592,192.168.152.8,100.96.38.157,5,0
2015-05-14 21:33:19.457,24,1431628393.134392,59.93365094508074,30.35731482440787,21.269,-1,-1,10,65,-9999,1431628399.442613,-12.02365112304688,-4.211479187011719,-43.07302856445312,56.16725540161133,45.77212905883789,20,309146.644097375,-0.0274200439453125,-0.3017578125,-0.940826416015625,309146.629500375,-0.02881380509800331,0.04236103924712738,-0.01716327427723367,309146.609510375,-0.03535923237973718,-0.03251482264267848,0.3168737149860291,-0.03280338272452354,0.0005368817946873605,0.006608335766941309,-0.002297263592481613,0.004041295498609543,0.01170841697603464,XArbitraryZVertical,-0.157445534527058,0.0188394577830107,0.02001946116080769,-0.9871449739844502,-0.03089060261845589,-0.3115974366664886,-0.9497119784355164,0,0,0,-1,309140.3202222917,unknown,2,2015-05-14 21:33:13.146,null,0,0,0,0,null,0,0.2866364,99.75592,192.168.152.8,100.96.38.157,5,0
2015-05-14 21:33:19.465,25,1431628393.134392,59.93365094508074,30.35731482440787,21.269,-1,-1,10,65,-9999,1431628399.461336,-12.39702606201172,-4.109848022460938,-43.171630859375,56.19866561889648,45.80353927612305,20,309146.653983375,-0.027008056640625,-0.3101806640625,-0.9411163330078125,309146.649467375,-0.04900003352858592,0.04651690212819604,-0.02803882522079025,309146.629500375,-0.03529538291200094,-0.0321573563419246,0.3166203942978534,-0.0008437093929387629,0.02724874578416348,0.0007115012849681079,-0.0002538475964684039,0.00564689002931118,0.0126985302194953,XArbitraryZVertical,-0.157324660655557,0.01865610965490112,0.01995814746743418,-0.9871689688558007,-0.03055364824831486,-0.3113567233085632,-0.9498018026351929,0,0,0,-1,309140.3202222917,unknown,2,2015-05-14 21:33:13.146,null,0,0,0,0,null,0,0.2866364,99.75592,192.168.152.8,100.96.38.157,5,0
2015-05-14 21:33:19.476,26,1431628393.134392,59.93365094508074,30.35731482440787,21.269,-1,-1,10,65,-9999,1431628399.461336,-12.39702606201172,-4.109848022460938,-43.171630859375,56.19866561889648,45.80353927612305,20,309146.663869375,-0.0223236083984375,-0.3134765625,-0.9507293701171875,309146.659468375,-0.05753439955785385,0.0337270709930905,-0.02286936322883744,309146.649467375,-0.03546048613394556,-0.03143769497287176,0.3163160096524328,-0.0210307203233242,0.03140474110841751,-0.01016412768512964,0.002453037537634373,0.009309647604823112,0.009091809391975403,XArbitraryZVertical,-0.1571800652261609,0.01831159536476003,0.01998109199886978,-0.9871979885176165,-0.02987308241426945,-0.3110674619674683,-0.9499182105064392,0,0,0,-1,309140.3202222917,unknown,2,2015-05-14 21:33:13.146,null,0,0,0,0,null,0,0.2866364,99.75592,192.168.152.8,100.96.38.157,5,0
2015-05-14 21:33:19.487,27,1431628393.134392,59.93365094508074,30.35731482440787,21.269,-1,-1,10,65,-9999,1431628399.481622,-12.39702606201172,-4.313117980957031,-42.97451782226562,56.23873901367188,45.84361267089844,20,309146.673755375,-0.0249786376953125,-0.3067474365234375,-0.952392578125,309146.659468375,-0.05753439955785385,0.0337270709930905,-0.02286936322883744,309146.649467375,-0.03546048613394556,-0.03143769497287176,0.3163160096524328,-0.0210307203233242,0.03140474110841751,-0.01016412768512964,0.002453037537634373,0.009309647604823112,0.009091809391975403,XArbitraryZVertical,-0.1571800652261609,0.01831159536476003,0.01998109199886978,-0.9871979885176165,-0.02987308241426945,-0.3110674619674683,-0.9499182105064392,0,0,0,-1,309140.3202222917,unknown,2,2015-05-14 21:33:13.146,null,0,0,0,0,null,0,0.2866364,99.75592,192.168.152.8,100.96.38.157,5,0
2015-05-14 21:33:19.500,28,1431628393.134392,59.93365094508074,30.35731482440787,21.269,-1,-1,10,65,-9999,1431628399.481622,-12.39702606201172,-4.313117980957031,-42.97451782226562,56.23873901367188,45.84361267089844,20,309146.683642375,-0.028839111328125,-0.310150146484375,-0.9485015869140625,309146.679435375,-0.03086603703401837,0.009417203930629194,-0.01203322706941403,309146.659468375,-0.03555534804776699,-0.03112617642708645,0.3160713293108156,-0.02956494875252247,0.01861518993973732,-0.004994793329387903,0.002571474062278867,0.0006542452028952539,0.008887198753654957,XArbitraryZVertical,-0.1570615281004732,0.01816343750709418,0.02000189584723071,-0.9872191702409273,-0.0295795314013958,-0.3108349144458771,-0.9500035047531128,0,0,0,-1,309140.3202222917,unknown,2,2015-05-14 21:33:13.146,null,0,0,0,0,null,0,0.2866364,99.75592,192.168.152.8,100.96.38.157,5,0
2015-05-14 21:33:19.505,29,1431628393.134392,59.93365094508074,30.35731482440787,21.269,-1,-1,10,65,-9999,1431628399.502535,-12.63462066650391,-4.143722534179688,-43.27017211914062,56.27760314941406,45.88247680664062,20,309146.693532375,-0.03466796875,-0.311614990234375,-0.944732666015625,309146.679435375,-0.03086603703401837,0.009417203930629194,-0.01203322706941403,309146.669447375,-0.03561172894455334,-0.03097438311361215,0.3158754398902917,-0.02205944992601871,-0.005783969536423683,0.001356828608550131,0.007113602943718433,-0.002827845048159361,-0.0006605173693969846,XArbitraryZVertical,-0.1569658335105293,0.01809145512288904,0.02001658216186455,-0.9872354140732782,-0.02943721227347851,-0.3106487095355988,-0.9500688314437866,0,0,0,-1,309140.3202222917,unknown,2,2015-05-14 21:33:13.146,null,0,0,0,0,null,0,0.2866364,99.75592,192.168.152.8,100.96.38.157,5,0
2015-05-14 21:33:19.516,30,1431628393.134392,59.93365094508074,30.35731482440787,21.269,-1,-1,10,65,-9999,1431628399.502535,-12.63462066650391,-4.143722534179688,-43.27017211914062,56.27760314941406,45.88247680664062,20,309146.703415375,-0.0330963134765625,-0.3079376220703125,-0.9344024658203125,309146.689434375,-0.01484445991610167,0.007368700420140244,-0.01293231025342478,309146.669447375,-0.03561172894455334,-0.03097438311361215,0.3158754398902917,-0.02205944992601871,-0.005783969536423683,0.001356828608550131,0.007113602943718433,-0.002827845048159361,-0.0006605173693969846,XArbitraryZVertical,-0.1569658335105293,0.01809145512288904,0.02001658216186455,-0.9872354140732782,-0.02943721227347851,-0.3106487095355988,-0.9500688314437866,0,0,0,-1,309140.3202222917,unknown,2,2015-05-14 21:33:13.146,null,0,0,0,0,null,0,0.2866364,99.75592,192.168.152.8,100.96.38.157,5,0
2015-05-14 21:33:19.525,31,1431628393.134392,59.93365094508074,30.35731482440787,21.269,-1,-1,10,65,-9999,1431628399.521013,-12.36307525634766,-4.143722534179688,-43.53298950195312,56.30698394775391,45.91185760498047,20,309146.713302375,-0.0286712646484375,-0.3060150146484375,-0.9284210205078125,309146.709404375,-0.007326356158807984,0.02015480312971967,-0.0234493997142567,309146.689434375,-0.03553697543303901,-0.03103924872206506,0.3157975596360875,0.0131246279925108,-0.007741914596408606,0.004941747058182955,0.0006604774971492589,0.0004245429299771786,0.001589533174410462,XArbitraryZVertical,-0.1569274149458373,0.01811701890558872,0.01998428543876654,-0.9872417071821328,-0.02949958853423595,-0.3105746805667877,-0.9500911235809326,0,0,0,-1,309140.3202222917,unknown,2,2015-05-14 21:33:13.146,null,0,0,0,0,null,0,0.2866364,99.75592,192.168.152.8,100.96.38.157,5,0
2015-05-14 21:33:19.535,32,1431628393.134392,59.93365094508074,30.35731482440787,21.269,-1,-1,10,65,-9999,1431628399.521013,-12.36307525634766,-4.143722534179688,-43.53298950195312,56.30698394775391,45.91185760498047,20,309146.723195375,-0.028167724609375,-0.3102569580078125,-0.9304351806640625,309146.719400375,-0.01593848649190623,0.05198570342667375,-0.02870514812552808,309146.709404375,-0.03547092065664832,-0.03133922248126288,0.3163210898879695,0.02064310386776924,0.005043369717895985,-0.005575120914727449,-0.003316822461783886,0.003134666010737419,0.01551711652427912,XArbitraryZVertical,-0.1571834613676805,0.01826384768650904,0.01997853569656066,-0.9871983840401982,-0.02977949194610119,-0.3110722899436951,-0.949919581413269,0,0,0,-1,309140.3202222917,unknown,2,2015-05-14 21:33:13.146,null,0,0,0,0,null,0,0.2866364,99.75592,192.168.152.8,100.96.38.157,5,0
2015-05-14 21:33:19.545,33,1431628393.134392,59.93365094508074,30.35731482440787,21.269,-1,-1,10,65,-9999,1431628399.54128,-12.53278350830078,-4.177597045898438,-44.09152221679688,56.33539199829102,45.94026565551758,20,309146.733074375,-0.028350830078125,-0.30682373046875,-0.93670654296875,309146.719400375,-0.01593848649190623,0.05198570342667375,-0.02870514812552808,309146.709404375,-0.03547092065664832,-0.03133922248126288,0.3163210898879695,0.02064310386776924,0.005043369717895985,-0.005575120914727449,-0.003316822461783886,0.003134666010737419,0.01551711652427912,XArbitraryZVertical,-0.1571834613676805,0.01826384768650904,0.01997853569656066,-0.9871983840401982,-0.02977949194610119,-0.3110722899436951,-0.949919581413269,0,0,0,-1,309140.3202222917,unknown,2,2015-05-14 21:33:13.146,null,0,0,0,0,null,0,0.2866364,99.75592,192.168.152.8,100.96.38.157,5,0
2015-05-14 21:33:19.554,34,1431628393.134392,59.93365094508074,30.35731482440787,21.269,-1,-1,10,65,-9999,1431628399.54128,-12.53278350830078,-4.177597045898438,-44.09152221679688,56.33539199829102,45.94026565551758,20,309146.742961375,-0.030517578125,-0.3029632568359375,-0.931640625,309146.729384375,-0.02450214729316502,0.05406936066355175,-0.02665504671838508,309146.709404375,-0.03547092065664832,-0.03133922248126288,0.3163210898879695,0.02064310386776924,0.005043369717895985,-0.005575120914727449,-0.003316822461783886,0.003134666010737419,0.01551711652427912,XArbitraryZVertical,-0.1571834613676805,0.01826384768650904,0.01997853569656066,-0.9871983840401982,-0.02977949194610119,-0.3110722899436951,-0.949919581413269,0,0,0,-1,309140.3202222917,unknown,2,2015-05-14 21:33:13.146,null,0,0,0,0,null,0,0.2866364,99.75592,192.168.152.8,100.96.38.157,5,0
2015-05-14 21:33:19.564,35,1431628393.134392,59.93365094508074,30.35731482440787,21.269,-1,-1,10,65,-9999,1431628399.562587,-12.05759429931641,-4.313117980957031,-43.82867431640625,56.35612869262695,45.96100234985352,20,309146.752858375,-0.0305023193359375,-0.31005859375,-0.9362945556640625,309146.739372375,-0.03189082142148086,0.03172464016945992,-0.02579484568628948,309146.729384375,-0.03567181499269437,-0.0305568077880509,0.3166593950555243,0.003467917675152421,0.03895809501409531,-0.008780892938375473,0.0008653094992041588,0.001136832754127681,0.01940216869115829,XArbitraryZVertical,-0.157356468820507,0.01789600797309299,0.02001828096809298,-0.9871767537001914,-0.02903303317725658,-0.3113937973976135,-0.949837327003479,0,0,0,-1,309140.3202222917,unknown,2,2015-05-14 21:33:13.146,null,0,0,0,0,null,0,0.2866364,99.75592,192.168.152.8,100.96.38.157,5,0
2015-05-14 21:33:19.579,36,1431628393.134392,59.93365094508074,30.35731482440787,21.269,-1,-1,10,65,-9999,1431628399.562587,-12.05759429931641,-4.313117980957031,-43.82867431640625,56.35612869262695,45.96100234985352,20,309146.762734375,-0.026641845703125,-0.313720703125,-0.948760986328125,309146.749366375,-0.05109274551317018,0.03375849629395343,-0.02706597247458431,309146.729384375,-0.03567181499269437,-0.0305568077880509,0.3166593950555243,0.003467917675152421,0.03895809501409531,-0.008780892938375473,0.0008653094992041588,0.001136832754127681,0.01940216869115829,XArbitraryZVertical,-0.157356468820507,0.01789600797309299,0.02001828096809298,-0.9871767537001914,-0.02903303317725658,-0.3113937973976135,-0.949837327003479,0,0,0,-1,309140.3202222917,unknown,2,2015-05-14 21:33:13.146,null,0,0,0,0,null,0,0.2866364,99.75592,192.168.152.8,100.96.38.157,5,0
2015-05-14 21:33:19.584,37,1431628393.134392,59.93365094508074,30.35731482440787,21.269,-1,-1,10,65,-9999,1431628399.581266,-12.29518890380859,-4.211479187011719,-43.92721557617188,56.37998580932617,45.98485946655273,20,309146.772607375,-0.028045654296875,-0.3082427978515625,-0.956787109375,309146.769339375,-0.07148456997990692,0.03365916038529348,-0.01448812896224907,309146.749366375,-0.03585571141972385,-0.03015141091151095,0.3164146469291708,-0.02312305383384228,0.01864710077643394,-0.009191817604005337,-0.001867310726083815,0.008197945542633533,0.01828456670045853,XArbitraryZVertical,-0.157238078836625,0.01770850195303181,0.02007567829728459,-0.9871978335993495,-0.02865026704967022,-0.3111611902713776,-0.9499251842498779,0,0,0,-1,309140.3202222917,unknown,2,2015-05-14 21:33:13.146,null,0,0,0,0,null,0,0.2866364,99.75592,192.168.152.8,100.96.38.157,5,0
2015-05-14 21:33:19.594,38,1431628393.134392,59.93365094508074,30.35731482440787,21.269,-1,-1,10,65,-9999,1431628399.581266,-12.29518890380859,-4.211479187011719,-43.92721557617188,56.37998580932617,45.98485946655273,20,309146.782508375,-0.0249481201171875,-0.305877685546875,-0.9588775634765625,309146.779333375,-0.05871684308184903,0.03478141646865287,-0.01113707336260237,309146.759351375,-0.03590561107559446,-0.02990589466326704,0.3161220195236796,-0.04028153419494629,0.02812564186751842,-0.003995161503553391,-0.002082553459331393,0.0008244943455792964,0.0137286139652133,XArbitraryZVertical,-0.1570956483833114,0.01758898930768385,0.02007925984384722,-0.9872225726948726,-0.02841976657509804,-0.3108830749988556,-0.9500231742858887,0,0,0,-1,309140.3202222917,unknown,2,2015-05-14 21:33:13.146,null,0,0,0,0,null,0,0.2866364,99.75592,192.168.152.8,100.96.38.157,5,0
2015-05-14 21:33:19.604,39,1431628393.134392,59.93365094508074,30.35731482440787,21.269,-1,-1,10,65,-9999,1431628399.600546,-12.193359375,-4.109848022460938,-43.63153076171875,56.40170288085938,46.00657653808594,20,309146.792393375,-0.024383544921875,-0.3077850341796875,-0.9546966552734375,309146.779333375,-0.05871684308184903,0.03478141646865287,-0.01113707336260237,309146.769339375,-0.03591675749052579,-0.02967062036934108,0.3157397323506499,-0.04351435601711273,0.01854777336120605,0.003385956166312099,0.001557926996611059,-0.003200981998816133,0.001387568074278533,XArbitraryZVertical,-0.1569091914462815,0.01747078733322693,0.02006402151025619,-0.9872546339574536,-0.02819977328181267,-0.3105197250843048,-0.9501485824584961,0,0,0,-1,309140.3202222917,unknown,2,2015-05-14 21:33:13.146,null,0,0,0,0,null,0,0.2866364,99.75592,192.168.152.8,100.96.38.157,5,0
2015-05-14 21:33:19.614,40,1431628393.134392,59.93365094508074,30.35731482440787,21.269,-1,-1,10,65,-9999,1431628399.600546,-12.193359375,-4.109848022460938,-43.63153076171875,56.40170288085938,46.00657653808594,20,309146.802278375,-0.027069091796875,-0.309783935546875,-0.94342041015625,309146.789322375,-0.03311161446517318,0.02215350552782414,-0.005584116173678147,309146.769339375,-0.03591675749052579,-0.02967062036934108,0.3157397323506499,-0.04351435601711273,0.01854777336120605,0.003385956166312099,0.001557926996611059,-0.003200981998816133,0.001387568074278533,XArbitraryZVertical,-0.1569091914462815,0.01747078733322693,0.02006402151025619,-0.9872546339574536,-0.02819977328181267,-0.3105197250843048,-0.9501485824584961,0,0,0,-1,309140.3202222917,unknown,2,2015-05-14 21:33:13.146,null,0,0,0,0,null,0,0.2866364,99.75592,192.168.152.8,100.96.38.157,5,0
2015-05-14 21:33:19.624,41,1431628393.134392,59.93365094508074,30.35731482440787,21.269,-1,-1,10,65,-9999,1431628399.622539,-12.05758666992188,-4.109848022460938,-43.4344482421875,56.42316818237305,46.02804183959961,20,309146.812152375,-0.0276031494140625,-0.3111572265625,-0.9367523193359375,309146.799310375,-0.01495364952079492,0.01692785083687066,-0.005409679122277957,309146.789322375,-0.03577688424349796,-0.02935171404367556,0.3150701914430817,-0.005142592824995518,0.007042521145194769,0.01228980626910925,0.002954737981781363,0.004005522467195988,-0.008512461557984352,XArbitraryZVertical,-0.1565830576809871,0.01729725045700922,0.0199660453080245,-0.9873114545110152,-0.02790285833179951,-0.3098832070827484,-0.9503651261329651,0,0,0,-1,309140.3202222917,unknown,2,2015-05-14 21:33:13.146,null,0,0,0,0,null,0,0.2866364,99.75592,192.168.152.8,100.96.38.157,5,0
2015-05-14 21:33:19.634,42,1431628393.134392,59.93365094508074,30.35731482440787,21.269,-1,-1,10,65,-9999,1431628399.622539,-12.05758666992188,-4.109848022460938,-43.4344482421875,56.42316818237305,46.02804183959961,20,309146.822050375,-0.0282135009765625,-0.30767822265625,-0.929840087890625,309146.809300375,-0.003232012298920164,0.0254827232065322,-0.007365238310723141,309146.789322375,-0.03577688424349796,-0.02935171404367556,0.3150701914430817,-0.005142592824995518,0.007042521145194769,0.01228980626910925,0.002954737981781363,0.004005522467195988,-0.008512461557984352,XArbitraryZVertical,-0.1565830576809871,0.01729725045700922,0.0199660453080245,-0.9873114545110152,-0.02790285833179951,-0.3098832070827484,-0.9503651261329651,0,0,0,-1,309140.3202222917,unknown,2,2015-05-14 21:33:13.146,null,0,0,0,0,null,0,0.2866364,99.75592,192.168.152.8,100.96.38.157,5,0
2015-05-14 21:33:19.643,43,1431628393.134392,59.93365094508074,30.35731482440787,21.269,-1,-1,10,65,-9999,1431628399.640814,-12.15941619873047,-4.21148681640625,-43.00738525390625,56.45617294311523,46.0610466003418,20,309146.831930375,-0.02392578125,-0.3058013916015625,-0.9274139404296875,309146.829266375,-0.01383512186296164,0.03180852974379741,-0.01705408467254042,309146.809300375,-0.03554086702989078,-0.02924039543701641,0.3153532375628449,0.02473676949739456,0.01037219166755676,0.01050848048180342,0.0007254074444063008,0.0003683733521029353,0.006860080640763044,XArbitraryZVertical,-0.1567259401575386,0.01722597763228247,0.01984246686169723,-0.9872925209304426,-0.027794498950243,-0.3101523220539093,-0.950280487537384,0,0,0,-1,309140.3202222917,unknown,2,2015-05-14 21:33:13.146,null,0,0,0,0,null,0,0.2866364,99.75592,192.168.152.8,100.96.38.157,5,0
2015-05-14 21:33:19.661,44,1431628393.134392,59.93365094508074,30.35731482440787,21.269,-1,-1,10,65,-9999,1431628399.640814,-12.15941619873047,-4.21148681640625,-43.00738525390625,56.45617294311523,46.0610466003418,20,309146.841816375,-0.0174102783203125,-0.305145263671875,-0.925872802734375,309146.839266375,-0.0394776347348986,0.02849875314104694,-0.01202363968948974,309146.819278375,-0.03546128828505389,-0.02915452300163321,0.3156831031786536,0.02264984324574471,0.01142574846744537,0.005154686979949474,0.0001067629564204253,-0.0006913356482982635,0.01342823822051287,XArbitraryZVertical,-0.1568903240072136,0.01717986087588666,0.01979836842319811,-0.987268100984213,-0.02770991250872612,-0.3104659020900726,-0.9501805305480957,0,0,0,-1,309140.3202222917,unknown,2,2015-05-14 21:33:13.146,null,0,0,0,0,null,0,0.2866364,99.75592,192.168.152.8,100.96.38.157,5,0
2015-05-14 21:33:19.663,45,1431628393.134392,59.93365094508074,30.35731482440787,21.269,-1,-1,10,65,-9999,1431628399.660836,-12.02363586425781,-4.008224487304688,-43.07308959960938,56.47763442993164,46.0825080871582,20,309146.851713375,-0.0241851806640625,-0.3060302734375,-0.92742919921875,309146.839266375,-0.0394776347348986,0.02849875314104694,-0.01202363968948974,309146.829266375,-0.03544067511863817,-0.02902926318864365,0.3159185772989307,0.01413443312048912,0.01669793576002121,0.0008195848786272109,-0.0006247309502214193,0.003011497668921947,0.02027083002030849,XArbitraryZVertical,-0.1570079867152613,0.01711820271112534,0.01977972629635558,-0.9872508402990601,-0.02758876979351044,-0.3106897175312042,-0.950110912322998,0,0,0,-1,309140.3202222917,unknown,2,2015-05-14 21:33:13.146,null,0,0,0,0,null,0,0.2866364,99.75592,192.168.152.8,100.96.38.157,5,0
2015-05-14 21:33:19.673,46,1431628393.134392,59.93365094508074,30.35731482440787,21.269,-1,-1,10,65,-9999,1431628399.660836,-12.02363586425781,-4.008224487304688,-43.07308959960938,56.47763442993164,46.0825080871582,20,309146.861593375,-0.0272064208984375,-0.3083038330078125,-0.9404449462890625,309146.849254375,-0.07153090898287429,0.03259549384591583,-0.009158344672673492,309146.829266375,-0.03544067511863817,-0.02902926318864365,0.3159185772989307,0.01413443312048912,0.01669793576002121,0.0008195848786272109,-0.0006247309502214193,0.003011497668921947,0.02027083002030849,XArbitraryZVertical,-0.1570079867152613,0.01711820271112534,0.01977972629635558,-0.9872508402990601,-0.02758876979351044,-0.3106897175312042,-0.950110912322998,0,0,0,-1,309140.3202222917,unknown,2,2015-05-14 21:33:13.146,null,0,0,0,0,null,0,0.2866364,99.75592,192.168.152.8,100.96.38.157,5,0
2015-05-14 21:33:19.683,47,1431628393.134392,59.93365094508074,30.35731482440787,21.269,-1,-1,10,65,-9999,1431628399.682183,-11.85392761230469,-4.245361328125,-43.171630859375,56.49970245361328,46.10457611083984,20,309146.871480375,-0.02911376953125,-0.3071746826171875,-0.958038330078125,309146.859242375,-0.09294911573372755,0.05267865794231237,-0.009286709037215311,309146.849254375,-0.03540071495075936,-0.02852142958670395,0.3155980860940851,-0.04356099292635918,0.01748612523078918,0.008714839816093445,0.009698827750980854,0.005239810328930616,0.02435148693621159,XArbitraryZVertical,-0.1568551229417858,0.01686194397633668,0.01971832276567307,-0.987280777185276,-0.02710910700261593,-0.3103850781917572,-0.9502242803573608,0,0,0,-1,309140.3202222917,unknown,2,2015-05-14 21:33:13.146,null,0,0,0,0,null,0,0.2866364,99.75592,192.168.152.8,100.96.38.157,5,0
2015-05-14 21:33:19.693,48,1431628393.134392,59.93365094508074,30.35731482440787,21.269,-1,-1,10,65,-9999,1431628399.682183,-11.85392761230469,-4.245361328125,-43.171630859375,56.49970245361328,46.10457611083984,20,309146.881364375,-0.0281219482421875,-0.3096771240234375,-0.9630279541015625,309146.869232375,-0.08449997085934216,0.06652869350737846,-0.00591328288441194,309146.849254375,-0.03540071495075936,-0.02852142958670395,0.3155980860940851,-0.04356099292635918,0.01748612523078918,0.008714839816093445,0.009698827750980854,0.005239810328930616,0.02435148693621159,XArbitraryZVertical,-0.1568551229417858,0.01686194397633668,0.01971832276567307,-0.987280777185276,-0.02710910700261593,-0.3103850781917572,-0.9502242803573608,0,0,0,-1,309140.3202222917,unknown,2,2015-05-14 21:33:13.146,null,0,0,0,0,null,0,0.2866364,99.75592,192.168.152.8,100.96.38.157,5,0
2015-05-14 21:33:19.702,49,1431628393.134392,59.93365094508074,30.35731482440787,21.269,-1,-1,10,65,-9999,1431628399.700112,-11.75210571289062,-3.804962158203125,-42.87594604492188,56.50948333740234,46.11435699462891,20,309146.891256375,-0.0269775390625,-0.3073272705078125,-0.95660400390625,309146.889209375,-0.03760756301744495,0.06143779476758299,0.002054628780996132,309146.869232375,-0.03524727390123015,-0.02770551982099171,0.3144691465033809,-0.05652970820665359,0.05141953378915787,0.01195976976305246,-0.0008629305521026254,0.001007860992103815,0.01015081256628036,XArbitraryZVertical,-0.1563070532370035,0.01643854487733198,0.01957242509919256,-0.9873777390271744,-0.02634349092841148,-0.3093116879463196,-0.9505957365036011,0,0,0,-1,309140.3202222917,unknown,2,2015-05-14 21:33:13.146,null,0,0,0,0,null,0,0.2866364,99.75592,192.168.152.8,100.96.38.157,5,0
2015-05-14 21:33:19.713,50,1431628393.134392,59.93365094508074,30.35731482440787,21.269,-1,-1,10,65,-9999,1431628399.700112,-11.75210571289062,-3.804962158203125,-42.87594604492188,56.50948333740234,46.11435699462891,20,309146.901141375,-0.028106689453125,-0.3108978271484375,-0.9562530517578125,309146.889209375,-0.03760756301744495,0.06143779476758299,0.002054628780996132,309146.879221375,-0.03508370726518073,-0.02738591801339619,0.3139827269082579,-0.03304430469870567,0.0377192310988903,0.01641582511365414,-0.003069975879043341,0.001674408908002079,-0.007283913902938366,XArbitraryZVertical,-0.1560713460260289,0.01626428498300318,0.01946407434770324,-0.9874200513425886,-0.02604379318654537,-0.3088490962982178,-0.9507544040679932,0,0,0,-1,309140.3202222917,unknown,2,2015-05-14 21:33:13.146,null,0,0,0,0,null,0,0.2866364,99.75592,192.168.152.8,100.96.38.157,5,0
2015-05-14 21:33:19.722,51,1431628393.134392,59.93365094508074,30.35731482440787,21.269,-1,-1,10,65,-9999,1431628399.7205,-11.81998443603516,-3.872711181640625,-43.13876342773438,56.52283477783203,46.12770843505859,20,309146.911027375,-0.0259857177734375,-0.3082275390625,-0.953643798828125,309146.899198375,-0.01634168908094422,0.07428648176277927,0.004498878029470857,309146.889209375,-0.03487551945817574,-0.02705941533008507,0.3137694852353514,-0.009638127870857716,0.04632829874753952,0.01992776058614254,-0.002386798616498709,-0.001030856044963002,-0.0121992714703083,XArbitraryZVertical,-0.1559709080694125,0.01608522992853375,0.01933467642980657,-0.9874413964896862,-0.0257351491600275,-0.3086462616920471,-0.9508286714553833,0,0,0,-1,309140.3202222917,unknown,2,2015-05-14 21:33:13.146,null,0,0,0,0,null,0,0.2866364,99.75592,192.168.152.8,100.96.38.157,5,0
2015-05-14 21:33:19.740,52,1431628393.134392,59.93365094508074,30.35731482440787,21.269,-1,-1,10,65,-9999,1431628399.7205,-11.81998443603516,-3.872711181640625,-43.13876342773438,56.52283477783203,46.12770843505859,20,309146.920919375,-0.025177001953125,-0.304046630859375,-0.94561767578125,309146.919176375,-0.02052391725680466,0.05301954256184251,0.004333762041885944,309146.899198375,-0.03463339275074155,-0.02657755975384956,0.313772268739996,0.01162739284336567,0.05917692184448242,0.02237201482057571,-0.001700577209703624,0.001321645104326308,-0.005763890221714973,XArbitraryZVertical,-0.1559788535733872,0.01582846526387793,0.01917756906851192,-0.9874473544295628,-0.02527696266770363,-0.3086489140987396,-0.9508401155471802,0,0,0,-1,309140.3202222917,unknown,2,2015-05-14 21:33:13.146,null,0,0,0,0,null,0,0.2866364,99.75592,192.168.152.8,100.96.38.157,5,0
2015-05-14 21:33:19.743,53,1431628393.134392,59.93365094508074,30.35731482440787,21.269,-1,-1,10,65,-9999,1431628399.7205,-11.81998443603516,-3.872711181640625,-43.13876342773438,56.52283477783203,46.12770843505859,20,309146.930796375,-0.0229949951171875,-0.3033905029296875,-0.938507080078125,309146.919176375,-0.02052391725680466,0.05301954256184251,0.004333762041885944,309146.909188375,-0.0343837145170625,-0.02617216879148466,0.3139441288068953,0.01701769046485424,0.0485762357711792,0.0223839245736599,-0.00321658025495708,-0.00208544684574008,-0.00545580917969346,XArbitraryZVertical,-0.1560695447125373,0.01561012419091701,0.0190235594881125,-0.9874394793709463,-0.02489010989665985,-0.3088123798370361,-0.9507972598075867,0,0,0,-1,309140.3202222917,unknown,2,2015-05-14 21:33:13.146,null,0,0,0,0,null,0,0.2866364,99.75592,192.168.152.8,100.96.38.157,5,0
2015-05-14 21:33:19.753,54,1431628399.735022,59.93364945301327,30.35731146237405,21.26199,-1,-1,10,65,-9999,1431628399.744048,-11.51450347900391,-3.703330993652344,-42.97454833984375,56.52529525756836,46.13016891479492,20,309146.940686375,-0.020965576171875,-0.3074798583984375,-0.9361724853515625,309146.929165375,-0.0387149053986999,0.06143166949707581,0.006311159151269779,309146.909188375,-0.0343837145170625,-0.02617216879148466,0.3139441288068953,0.01701769046485424,0.0485762357711792,0.0223839245736599,-0.00321658025495708,-0.00208544684574008,-0.00545580917969346,XArbitraryZVertical,-0.1560695447125373,0.01561012419091701,0.0190235594881125,-0.9874394793709463,-0.02489010989665985,-0.3088123798370361,-0.9507972598075867,0,0,0,-1,309140.3202222917,unknown,2,2015-05-14 21:33:13.146,null,0,0,0,0,null,0,0.2866364,99.75592,192.168.152.8,100.96.38.157,5,0
2015-05-14 21:33:19.762,55,1431628399.735022,59.93364945301327,30.35731146237405,21.26199,-1,-1,10,65,-9999,1431628399.759865,-11.31084442138672,-3.500076293945312,-43.23739624023438,56.51361846923828,46.11849212646484,20,309146.950582375,-0.0261688232421875,-0.3018035888671875,-0.93670654296875,309146.949142375,-0.09852843821744356,0.06327138117810253,0.01205453235813466,309146.929165375,-0.03388376286563036,-0.02552445787281887,0.3139159057573446,-0.01073296833783388,0.0463193841278553,0.0241948626935482,-0.0009025171748362482,0.004738905467092991,0.005204201210290194,XArbitraryZVertical,-0.1560655793661818,0.01525111212475438,0.0187260361947501,-0.9874514034039785,-0.02427448518574238,-0.3087855279445648,-0.9508218765258789,0,0,0,-1,309140.3202222917,unknown,2,2015-05-14 21:33:13.146,null,0,0,0,0,null,0,0.2866364,99.75592,192.168.152.8,100.96.38.157,5,0
2015-05-14 21:33:19.773,56,1431628399.735022,59.93364945301327,30.35731146237405,21.26199,-1,-1,10,65,-9999,1431628399.759865,-11.31084442138672,-3.500076293945312,-43.23739624023438,56.51361846923828,46.11849212646484,20,309146.960465375,-0.0283203125,-0.2960662841796875,-0.9382781982421875,309146.949142375,-0.09852843821744356,0.06327138117810253,0.01205453235813466,309146.939154375,-0.03363577638979713,-0.0251123980485566,0.3135495802279479,-0.04169239103794098,0.04617222398519516,0.02598151564598083,0.0008905308204703033,0.005046588834375143,0.01243773568421602,XArbitraryZVertical,-0.1558904187547134,0.01502563262885088,0.01856965375651816,-0.9874854812421009,-0.02388552576303482,-0.3084370791912079,-0.9509448409080505,0,0,0,-1,309140.3202222917,unknown,2,2015-05-14 21:33:13.146,null,0,0,0,0,null,0,0.2866364,99.75592,192.168.152.8,100.96.38.157,5,0
2015-05-14 21:33:19.781,57,1431628399.735022,59.93364945301327,30.35731146237405,21.26199,-1,-1,10,65,-9999,1431628399.779893,-11.039306640625,-3.432327270507812,-42.97454833984375,56.4954833984375,46.10035705566406,20,309146.970357375,-0.0259857177734375,-0.2942657470703125,-0.9361114501953125,309146.959129375,-0.113500197233651,0.06957428452999308,0.01298903558464347,309146.949142375,-0.033363539399324,-0.0246769462179163,0.3129677019632928,-0.07054639607667923,0.04815946519374847,0.02993805333971977,0.002510281279683113,0.0004036727477796376,0.01496189832687378,XArbitraryZVertical,-0.1556091475735497,0.01478517732833946,0.0183985080475845,-0.9875366760907787,-0.02347585745155811,-0.3078835308551788,-0.9511343836784363,0,0,0,-1,309140.3202222917,unknown,2,2015-05-14 21:33:13.146,null,0,0,0,0,null,0,0.2866364,99.75592,192.168.152.8,100.96.38.157,5,0
2015-05-14 21:33:19.791,58,1431628399.735022,59.93364945301327,30.35731146237405,21.26199,-1,-1,10,65,-9999,1431628399.779893,-11.039306640625,-3.432327270507812,-42.97454833984375,56.4954833984375,46.10035705566406,20,309146.980247375,-0.0225372314453125,-0.2932891845703125,-0.9427490234375,309146.969120375,-0.1263456884355392,0.07269977038531007,0.01606418769535797,309146.949142375,-0.033363539399324,-0.0246769462179163,0.3129677019632928,-0.07054639607667923,0.04815946519374847,0.02993805333971977,0.002510281279683113,0.0004036727477796376,0.01496189832687378,XArbitraryZVertical,-0.1556091475735497,0.01478517732833946,0.0183985080475845,-0.9875366760907787,-0.02347585745155811,-0.3078835308551788,-0.9511343836784363,0,0,0,-1,309140.3202222917,unknown,2,2015-05-14 21:33:13.146,null,0,0,0,0,null,0,0.2866364,99.75592,192.168.152.8,100.96.38.157,5,0
2015-05-14 21:33:19.803,59,1431628399.735022,59.93364945301327,30.35731146237405,21.26199,-1,-1,10,65,-9999,1431628399.779893,-11.039306640625,-3.432327270507812,-42.97454833984375,56.4954833984375,46.10035705566406,20,309146.990112375,-0.019683837890625,-0.3043365478515625,-0.9511871337890625,309146.979108375,-0.1477873310039852,0.08853252938194014,0.02018090210840245,309146.969120375,-0.03269001166575053,-0.02392543857773095,0.3110401546704809,-0.09836448729038239,0.0575871579349041,0.0339479111135006,-0.005545091349631548,0.00998276099562645,0.01346508134156466,XArbitraryZVertical,-0.1546689913533209,0.01434793018757637,0.01799852615720667,-0.9876981791363417,-0.02277522161602974,-0.3060490489006042,-0.9517433047294617,0,0,0,-1,309140.3202222917,unknown,2,2015-05-14 21:33:13.146,null,0,0,0,0,null,0,0.2866364,99.75592,192.168.152.8,100.96.38.157,5,0
2015-05-14 21:33:19.822,60,1431628399.735022,59.93364945301327,30.35731146237405,21.26199,-1,-1,10,65,-9999,1431628399.819794,-11.0732421875,-3.3306884765625,-42.87594604492188,56.46368026733398,46.06855392456055,20,309147.000003375,-0.018646240234375,-0.3106231689453125,-0.9505462646484375,309146.989092375,-0.1649876232203709,0.1033223944956952,0.02754108041305444,309146.969120375,-0.03269001166575053,-0.02392543857773095,0.3110401546704809,-0.09836448729038239,0.0575871579349041,0.0339479111135006,-0.005545091349631548,0.00998276099562645,0.01346508134156466,XArbitraryZVertical,-0.1546689913533209,0.01434793018757637,0.01799852615720667,-0.9876981791363417,-0.02277522161602974,-0.3060490489006042,-0.9517433047294617,0,0,0,-1,309140.3202222917,unknown,2,2015-05-14 21:33:13.146,null,0,0,0,0,null,0,0.2866364,99.75592,192.168.152.8,100.96.38.157,5,0
2015-05-14 21:33:19.823,61,1431628399.735022,59.93364945301327,30.35731146237405,21.26199,-1,-1,10,65,-9999,1431628399.819794,-11.0732421875,-3.3306884765625,-42.87594604492188,56.46368026733398,46.06855392456055,20,309147.009879375,-0.0127410888671875,-0.31195068359375,-0.9559326171875,309147.009075375,-0.1748402539892281,0.1532052659256424,0.03304423648959418,309146.989092375,-0.03189580540520551,-0.02270076148307202,0.3083047704341674,-0.1370078921318054,0.08820948004722595,0.04542488977313042,-0.0009086834616027772,0.01015459001064301,0.009854819625616074,XArbitraryZVertical,-0.153334319447783,0.01366254200321874,0.01749961773948798,-0.9879249388513611,-0.02162854745984077,-0.3034437894821167,-0.952603816986084,0,0,0,-1,309140.3202222917,unknown,2,2015-05-14 21:33:13.146,null,0,0,0,0,null,0,0.2866364,99.75592,192.168.152.8,100.96.38.157,5,0
2015-05-14 21:33:19.834,62,1431628399.735022,59.93364945301327,30.35731146237405,21.26199,-1,-1,10,65,-9999,1431628399.819794,-11.0732421875,-3.3306884765625,-42.87594604492188,56.46368026733398,46.06855392456055,20,309147.019765375,-0.01611328125,-0.3186492919921875,-0.94677734375,309147.009075375,-0.1748402539892281,0.1532052659256424,0.03304423648959418,309146.999087375,-0.03141380944952744,-0.02179618585233455,0.3068779296573839,-0.1446175426244736,0.1083570271730423,0.05185499787330627,0.001092414255253971,-0.002252645790576935,0.001867777202278376,XArbitraryZVertical,-0.1526405095658201,0.01316887728112743,0.01718620919246532,-0.9880445788142519,-0.02077625133097172,-0.3020839095115662,-0.9530549049377441,0,0,0,-1,309140.3202222917,unknown,2,2015-05-14 21:33:13.146,null,0,0,0,0,null,0,0.2866364,99.75592,192.168.152.8,100.96.38.157,5,0
2015-05-14 21:33:19.841,63,1431628399.735022,59.93364945301327,30.35731146237405,21.26199,-1,-1,10,65,-9999,1431628399.819794,-11.0732421875,-3.3306884765625,-42.87594604492188,56.46368026733398,46.06855392456055,20,309147.029662375,-0.0103912353515625,-0.312469482421875,-0.942474365234375,309147.019076375,-0.1598743539274188,0.1660262560455019,0.02474529390068926,309147.009075375,-0.03091901752596356,-0.02058465407266334,0.3055616879261716,-0.1468597054481506,0.1380927562713623,0.05092783272266388,0.0009835078381001949,-0.009794277139008045,0.002929823473095894,XArbitraryZVertical,-0.1520036718943829,0.01252356424546461,0.01684415905754199,-0.9881570312328183,-0.01962974853813648,-0.3008289039134979,-0.9534760713577271,0,0,0,-1,309140.3202222917,unknown,2,2015-05-14 21:33:13.146,null,0,0,0,0,null,0,0.2866364,99.75592,192.168.152.8,100.96.38.157,5,0
2015-05-14 21:33:19.850,64,1431628399.735022,59.93364945301327,30.35731146237405,21.26199,-1,-1,10,65,-9999,1431628399.841726,-10.93747711181641,-3.262931823730469,-43.27017211914062,55.40542602539062,45.01029968261719,20,309147.039541375,-0.013336181640625,-0.3080902099609375,-0.9398193359375,309147.039041375,-0.1707618890958807,0.1978433079047875,0.03440537812273368,309147.019076375,-0.03051750562305206,-0.01911558107640266,0.30435403556714,-0.1318929493427277,0.1509143859148026,0.04262863099575043,0.005494843237102032,-0.01227372232824564,-0.002066185465082526,XArbitraryZVertical,-0.1514216319620074,0.01175897567906383,0.01652981754102796,-0.9882610894885016,-0.01823593303561211,-0.2996769547462463,-0.9538664221763611,0,0,0,-1,309140.3202222917,unknown,2,2015-05-14 21:33:13.146,null,0,0,0,0,null,0,0.2866364,99.75592,192.168.152.8,100.96.38.157,5,0
2015-05-14 21:33:19.863,65,1431628399.735022,59.93364945301327,30.35731146237405,21.26199,-1,-1,10,65,-9999,1431628399.841726,-10.93747711181641,-3.262931823730469,-43.27017211914062,55.40542602539062,45.01029968261719,20,309147.049433375,-0.0088958740234375,-0.292144775390625,-0.931396484375,309147.039041375,-0.1707618890958807,0.1978433079047875,0.03440537812273368,309147.029053375,-0.03007379562076147,-0.01766038783394729,0.3033806566985079,-0.1330368369817734,0.1604694873094559,0.04693775251507759,0.0007397155277431011,-0.01990111544728279,0.007405816577374935,XArbitraryZVertical,-0.1509550449177435,0.01099973753670275,0.01619724641847585,-0.9883467151746208,-0.01685299724340439,-0.2987481653690338,-0.9541831612586975,0,0,0,-1,309140.3202222917,unknown,2,2015-05-14 21:33:13.146,null,0,0,0,0,null,0,0.2866364,99.75592,192.168.152.8,100.96.38.157,5,0
2015-05-14 21:33:19.871,66,1431628399.735022,59.93364945301327,30.35731146237405,21.26199,-1,-1,10,65,-9999,1431628399.863276,-11.31084442138672,-3.432319641113281,-43.23733520507812,56.72012329101562,46.32499694824219,20,309147.059319375,-0.001861572265625,-0.284698486328125,-0.9385223388671875,309147.049017375,-0.1954520555620054,0.2104722841100523,0.04487133489063608,309147.039041375,-0.02960198775779231,-0.01592478184608369,0.3022691858960433,-0.1427772045135498,0.1827322393655777,0.05228831619024277,0.004810929298400879,-0.01478220243006945,0.01206802669912577,XArbitraryZVertical,-0.1504221229164326,0.01009896537689898,0.01582995037599975,-0.988443528233516,-0.01520216464996338,-0.297687292098999,-0.9545423984527588,0,0,0,-1,309140.3202222917,unknown,2,2015-05-14 21:33:13.146,null,0,0,0,0,null,0,0.2866364,99.75592,192.168.152.8,100.96.38.157,5,0
2015-05-14 21:33:19.881,67,1431628399.735022,59.93364945301327,30.35731146237405,21.26199,-1,-1,10,65,-9999,1431628399.863276,-11.31084442138672,-3.432319641113281,-43.23733520507812,56.72012329101562,46.32499694824219,20,309147.069223375,-0.0090484619140625,-0.3049163818359375,-0.9317779541015625,309147.059019375,-0.208347081560169,0.1870583044382936,-0.04825354947503671,309147.039041375,-0.02960198775779231,-0.01592478184608369,0.3022691858960433,-0.1427772045135498,0.1827322393655777,0.05228831619024277,0.004810929298400879,-0.01478220243006945,0.01206802669912577,XArbitraryZVertical,-0.1504221229164326,0.01009896537689898,0.01582995037599975,-0.988443528233516,-0.01520216464996338,-0.297687292098999,-0.9545423984527588,0,0,0,-1,309140.3202222917,unknown,2,2015-05-14 21:33:13.146,null,0,0,0,0,null,0,0.2866364,99.75592,192.168.152.8,100.96.38.157,5,0
